name,rating,reviews,address,website,type,lat,lng
Century Plaza Hotel,4,1804,"1015 Burrard St, Vancouver, BC V6Z 1Y5, Canada",http://www.century-plaza.com/,"cafe, lodging, restaurant, food, point_of_interest, store, establishment",49.2808927,-123.1270959
Executive Suites Hotel and Conference Centre Metro Vancouver,3.7,1363,"4201 Lougheed Hwy., Burnaby, BC V5C 3Y6, Canada",http://www.executivehotelburnaby.com/,"cafe, lodging, bar, restaurant, food, point_of_interest, store, establishment",49.2675628,-123.0107421
,,,,,,,
Boston Pizza,4,1554,"2850 Bentall St, Vancouver, BC V5M 4H4, Canada",https://bostonpizza.com/grandview-hwy,"restaurant, bar, point_of_interest, food, establishment",49.25847460000001,-123.0306817
Boston Pizza,3.7,1355,"1045 Columbia St, New Westminster, BC V3M 6H7, Canada",https://bostonpizza.com/new-west,"bar, restaurant, food, point_of_interest, establishment",49.2005023,-122.9183742
REVS Bowling,3.8,2324,"5502 Lougheed Hwy., Burnaby, BC V5B 2Z8, Canada",http://www.revs.ca/,"bowling_alley, bar, restaurant, food, point_of_interest, establishment",49.26404309999999,-122.9836354
Boston Pizza,3.9,1296,"15125 100 Ave, Surrey, BC V3R 0J8, Canada",https://bostonpizza.com/guildford,"bar, restaurant, food, point_of_interest, establishment",49.1844447,-122.8034568
Boston Pizza,3.6,1240,"7488 King George Blvd #600, Surrey, BC V3W 0H9, Canada",https://bostonpizza.com/newton,"bar, restaurant, food, point_of_interest, establishment",49.1380772,-122.8449654
Boston Pizza,3.8,797,"1333 W Broadway #190, Vancouver, BC V6H 4C1, Canada",https://bostonpizza.com/broadway,"bar, restaurant, food, point_of_interest, establishment",49.26386979999999,-123.1342545
Tim Hortons,3.7,1575,"6641 Kingsway, Burnaby, BC V5E 1E2, Canada",https://locations.timhortons.ca/en/bc/burnaby/6641-kingsway/,"cafe, bakery, store, restaurant, food, point_of_interest, establishment",49.2191161,-122.966677
Tim Hortons,3.4,214,"4512 Lougheed Hwy., Burnaby, BC V5C 3Z4, Canada",https://locations.timhortons.ca/en/bc/burnaby/4512-lougheed-hwy/,"cafe, bakery, restaurant, food, point_of_interest, store, establishment",49.2660648,-123.0023892
Boston Pizza,3.6,1246,"11662 Steveston Hwy #2000, Richmond, BC V7A 5J3, Canada",https://bostonpizza.com/ironwood,"bar, restaurant, food, point_of_interest, establishment",49.1329885,-123.0955654
,,,,,,,
,,,,,,,
City Square Shopping Centre,3.7,430,"555 W 12th Ave, Vancouver, BC V5Z 3X7, Canada",https://citysquarevan.com/,"shopping_mall, restaurant, food, point_of_interest, health, establishment",49.2608805,-123.1165207
Boston Pizza,3.9,902,"6486 176 St #600, Surrey, BC V3S 4G3, Canada",https://bostonpizza.com/cloverdale,"bar, restaurant, food, point_of_interest, establishment",49.12003620000001,-122.7344072
Boston Pizza,3.6,766,"805 Boyd St P100, New Westminster, BC V3M 0A7, Canada",https://bostonpizza.com/queensborough,"bar, restaurant, food, point_of_interest, establishment",49.1913762,-122.9482396
Subway,4,345,"8555 Sea Island Wy Unit 130, Richmond, BC V6X 1Y1, Canada",https://restaurants.subway.com/canada/bc/richmond/8555-sea-island-way?utm_source=yxt-goog&utm_medium=local&utm_term=acq&utm_content=42764&utm_campaign=evergreen-2020&y_source=1_MTQ5MjA0NjctNzE1LWxvY2F0aW9uLndlYnNpdGU%3D,"meal_takeaway, restaurant, food, point_of_interest, establishment",49.19167799999999,-123.1286652
The One Restaurant,3.9,1836,"5908 Kingsway, Burnaby, BC V5J 1H2, Canada",http://theonerestaurant.ca/,"restaurant, food, point_of_interest, establishment",49.2205798,-122.9772057
Tim Hortons,3.4,530,"555 W Hastings St Unit 6, Vancouver, BC V6B 5K3, Canada",https://locations.timhortons.ca/en/bc/vancouver/555-hastings-st-west,"cafe, bakery, restaurant, food, point_of_interest, store, establishment",49.2849465,-123.1119939
Boston Pizza,3.8,884,"1956 152 St, Surrey, BC V4A 4N6, Canada",https://bostonpizza.com/white-rock,"bar, restaurant, food, point_of_interest, establishment",49.0375643,-122.8008813
Tim Hortons,3.4,1324,"805 Boyd St, New Westminster, BC V3M 0A7, Canada",http://locations.timhortons.ca/en/bc/new-westminster/805-boyd-st,"cafe, bakery, restaurant, food, point_of_interest, store, establishment",49.1905855,-122.9484902
Prestons Restaurant + Lounge Vancouver,3.9,327,"1177 W Pender St, Vancouver, BC V6E 2P4, Canada",https://www.prestonsvancouver.ca/,"restaurant, food, point_of_interest, establishment",49.28821899999999,-123.122225
Cafe Artigiano Hornby,4,837,"763 Hornby St, Vancouver, BC V6Z 2P4, Canada",http://www.caffeartigiano.com/,"cafe, bakery, food, point_of_interest, store, establishment",49.28315720000001,-123.1214928
Tim Hortons,3.9,2223,"9731 Bridgeport Rd, Richmond, BC V6X 1S3, Canada",http://locations.timhortons.ca/en/bc/richmond/9731-bridgeport-rd,"cafe, restaurant, bakery, store, food, point_of_interest, establishment",49.1922797,-123.1161853
Tim Hortons,3.3,280,"10376 152 St, Surrey, BC V3R 4G8, Canada",https://locations.timhortons.ca/en/bc/surrey/10376-152nd-st/,"cafe, bakery, restaurant, food, point_of_interest, store, establishment",49.19119689999999,-122.8000252
Tim Hortons,3.1,730,"3433 North Rd Unit 101, Burnaby, BC V3J 1A2, Canada",https://locations.timhortons.ca/en/bc/burnaby/3433-north-rd/,"cafe, restaurant, bakery, store, food, point_of_interest, establishment",49.25219369999999,-122.8934097
,,,,,,,
Tim Hortons,3.8,1505,"2635 Barnet Hwy #109, Coquitlam, BC V3E 1K9, Canada",https://locations.timhortons.ca/en/bc/coquitlam/2635-barnet-hwy/,"cafe, bakery, store, restaurant, food, point_of_interest, establishment",49.2781577,-122.8141451
Tim Hortons,3.3,682,"3077 152 St Unit 600, Surrey, BC V4P 3K1, Canada",https://locations.timhortons.ca/en/bc/surrey/3077-152-st/,"cafe, bakery, restaurant, point_of_interest, store, food, establishment",49.05825799999999,-122.802279
Tim Hortons,3.5,343,"7089 Lougheed Hwy., Burnaby, BC V5A 1W1, Canada",https://locations.timhortons.ca/en/bc/burnaby/7089-lougheed-hwy/,"cafe, restaurant, bakery, store, food, point_of_interest, establishment",49.2590297,-122.9568103
Tim Hortons,3.5,1417,"11320 Steveston Hwy Unit 110, Richmond, BC V7A 5J5, Canada",http://locations.timhortons.ca/en/bc/richmond/11320-steveston-hwy,"cafe, restaurant, bakery, store, food, point_of_interest, establishment",49.1330493,-123.098238
Tim Hortons,3.7,1252,"1409 Marine Dr, North Vancouver, BC V7P 2V7, Canada",http://locations.timhortons.ca/en/bc/north-vancouver/1409-marine-dr,"cafe, bakery, restaurant, food, point_of_interest, store, establishment",49.3232489,-123.1137776
Tim Hortons,3.4,985,"1525 Lougheed Hwy., Port Coquitlam, BC V3B 1A5, Canada",http://locations.timhortons.ca/en/bc/port-coquitlam/1525-lougheed-hwy,"cafe, bakery, restaurant, food, point_of_interest, store, establishment",49.25988419999999,-122.7568846
Tim Hortons,3.3,1212,"12110 Nordel Way, Surrey, BC V3W 1P6, Canada",http://locations.timhortons.ca/en/bc/surrey/12110-nordel-way,"cafe, bakery, restaurant, point_of_interest, store, food, establishment",49.16161049999999,-122.887651
,,,,,,,
Tim Hortons,3.5,631,"1767 152 St Unit 1, Surrey, BC V4A 4N3, Canada",https://locations.timhortons.ca/en/bc/surrey/1767-152nd-street/,"cafe, bakery, store, restaurant, food, point_of_interest, establishment",49.0336161,-122.8015521
McDonald's,3.4,5012,"1527 Main St, Vancouver, BC V6A 2W5, Canada",https://www.mcdonalds.com/ca/en-ca/restaurant-locator.html?y_source=1_MTQ1MTkyNjUtNzE1LWxvY2F0aW9uLndlYnNpdGU%3D,"cafe, restaurant, point_of_interest, food, establishment",49.271917,-123.1007164
Tim Hortons,3.2,1706,"1450 United Blvd, Coquitlam, BC V3K 6Y2, Canada",http://locations.timhortons.ca/en/bc/coquitlam/1450-united-blvd,"cafe, bakery, restaurant, food, point_of_interest, store, establishment",49.2283645,-122.8483446
Tim Hortons,3.6,669,"17888 56 Ave, Cloverdale, BC V3S 1C7, Canada",https://locations.timhortons.ca/en/bc/cloverdale/17888-56-ave/,"cafe, bakery, restaurant, food, point_of_interest, store, establishment",49.1037641,-122.7266541
Tim Hortons,3.2,754,"1359 Cliveden Ave, Delta, BC V3M 6C7, Canada",https://locations.timhortons.ca/en/bc/delta/1359-cliveden-ave/,"bakery, cafe, restaurant, food, point_of_interest, store, establishment",49.1691967,-122.958566
Tim Hortons,3.4,839,"1320 Kingsway Ave, Port Coquitlam, BC V3C 1S2, Canada",http://locations.timhortons.ca/en/bc/port-coquitlam/1320-kingsway-ave,"cafe, bakery, restaurant, food, point_of_interest, store, establishment",49.24693329999999,-122.7499732
Tim Hortons,3,262,"1097 Nicola Ave, Port Coquitlam, BC V3B 8B2, Canada",http://locations.timhortons.ca/en/bc/port-coquitlam/1097-nicola-ave,"bakery, cafe, restaurant, food, point_of_interest, store, establishment",49.25749649999999,-122.7438068
Tim Hortons,3.4,1154,"20270 Logan Ave, Langley, BC V3A 4L6, Canada",http://locations.timhortons.ca/en/bc/langley/20270-logan-ave,"cafe, bakery, food, point_of_interest, store, establishment",49.1088752,-122.6611986
Tim Hortons,3,657,"20159 88 Ave Unit H101, Langley Twp, BC V1M 0B4, Canada",http://locations.timhortons.ca/en/bc/langley/20159-88th-ave,"cafe, bakery, restaurant, food, point_of_interest, store, establishment",49.16421879999999,-122.6644602
,,,,,,,
Tim Hortons,3.6,933,"11811 224 St, Maple Ridge, BC V2X 0P1, Canada",http://locations.timhortons.ca/en/bc/maple-ridge/11811-224th-st,"cafe, bakery, restaurant, food, point_of_interest, store, establishment",49.2171398,-122.6018268
Richmond Olympic Oval,4,420,"6111 River Rd, Richmond, BC V7C 0A2, Canada",https://richmondoval.ca/,"tourist_attraction, cafe, gym, museum, food, point_of_interest, health, establishment",49.17471409999999,-123.1516981
,,,,,,,
Deer Garden Signatures,4,954,"8580 Alexandra Rd Unit 2015, Richmond, BC V6X 1C3, Canada",http://deergarden.ca/,"cafe, restaurant, food, point_of_interest, establishment",49.177903,-123.127564
"Just Imagine Fun Clothing, Costumes & Dance Gear",4.5,29,"1496 Cartwright St, Vancouver, BC V6H 3Y5, Canada",https://www.justimaginecostumes.com/,"cafe, shoe_store, clothing_store, food, point_of_interest, home_goods_store, store, establishment",49.27026619999999,-123.1359234
Tim Hortons,3.9,1085,"8080 120 St Unit 101, Surrey, BC V3W 3N3, Canada",https://locations.timhortons.ca/en/bc/surrey/8080-120th-st/,"cafe, bakery, restaurant, food, point_of_interest, store, establishment",49.1501853,-122.8899299
Tim Hortons,3.3,481,"1078 Sunshine Coast Hwy, Gibsons, BC V0N 1V0, Canada",http://locations.timhortons.ca/en/bc/gibsons/1078-sunshine-coast-highway,"bakery, cafe, restaurant, food, point_of_interest, store, establishment",49.40703599999999,-123.5295922
Starbucks,4,248,"20015 Langley Bypass, Langley, BC V3A 5V4, Canada",https://www.starbucks.ca/,"cafe, point_of_interest, store, food, establishment",49.1147779,-122.666593
McDonald's,3.5,2163,"891 Granville St, Vancouver, BC V6Z 1K7, Canada",https://www.mcdonalds.com/ca/en-ca/restaurant-locator.html?y_source=1_MTQ1MjAwNTYtNzE1LWxvY2F0aW9uLndlYnNpdGU%3D,"cafe, restaurant, food, point_of_interest, establishment",49.2805624,-123.1214173
,,,,,,,
Starbucks,4,929,"1795 Davie St, Vancouver, BC V6G 2M9, Canada",https://www.starbucks.ca/,"cafe, point_of_interest, store, food, establishment",49.2872558,-123.141497
Tim Hortons,3.2,779,"865 W Broadway, Vancouver, BC V5Z 1J9, Canada",https://locations.timhortons.ca/en/bc/vancouver/865-west-broadway/,"cafe, restaurant, bakery, store, food, point_of_interest, establishment",49.2635548,-123.1233889
No.9 Restaurant,3.7,3587,"5300 Number 3 Rd #812, Richmond, BC V6X 2X9, Canada",http://richmond9.com/,"cafe, restaurant, food, point_of_interest, establishment",49.1753301,-123.1343318
Petit Ami,3.6,158,"1689 Johnston St, Vancouver, BC V6H 3S2, Canada",http://www.petitami.ca/,"cafe, store, food, point_of_interest, establishment",49.2727014,-123.1352146
Starlight Casino,3.8,2976,"350 Gifford St, New Westminster, BC V3M 7A3, Canada",http://www.starlightcasino.ca/,"casino, bar, point_of_interest, establishment",49.1861582,-122.9563348
Boston Pizza,3.7,1043,"12060 Nordel Way, Surrey, BC V3W 1P6, Canada",https://bostonpizza.com/en/locations/nordel-crossing.html,"bar, restaurant, food, point_of_interest, establishment",49.1616325,-122.8882848
Boston Pizza,3.6,1109,"19700 Langley Bypass, Langley, BC V3A 7B1, Canada",https://bostonpizza.com/langley,"bar, restaurant, food, point_of_interest, establishment",49.1105222,-122.6768034
Boston Pizza,3.7,1265,"20090 91A Ave, Langley Twp, BC V1M 3Y9, Canada",https://bostonpizza.com/en/locations/walnut-grove.html,"bar, restaurant, food, point_of_interest, establishment",49.1675169,-122.6674357
Boston Pizza,3.6,762,"5801 Marine Way, Burnaby, BC V5J 0A6, Canada",https://bostonpizza.com/big-bend,"bar, restaurant, food, point_of_interest, establishment",49.19793259999999,-122.9749254
Boston Pizza,3.7,908,"19800 Lougheed Hwy. Unit 510, Pitt Meadows, BC V3Y 2W1, Canada",https://bostonpizza.com/pitt-meadows,"bar, restaurant, food, point_of_interest, establishment",49.2242626,-122.6735092
No5 Orange,3.9,204,"205 Main St, Vancouver, BC V6A 2S7, Canada",http://www.no5orange.ca/,"bar, night_club, point_of_interest, establishment",49.28305140000001,-123.099956
Canlan Sports,4,92,"5700 Langley Bypass, Langley, BC V3A 8L7, Canada",https://www.canlansports.com/,"bar, restaurant, school, food, point_of_interest, establishment",49.10634289999999,-122.6421256
,,,,,,,
The Red Room,3.5,668,"398 Richards St, Vancouver, BC V6B 4Y2, Canada",http://www.redroomvancouver.com/,"night_club, bar, point_of_interest, establishment",49.28416,-123.1113488
GreenTee Country Club Westwood Plateau Sky,3.9,382,"3251 Plateau Blvd, Coquitlam, BC V3E 3B8, Canada",https://www.gtccwestwoodplateau.com/,"bar, restaurant, food, point_of_interest, health, establishment",49.3136018,-122.7860011
Celebrities Nightclub,3.6,614,"1022 Davie St, Vancouver, BC V6E 1M3, Canada",http://celebritiesnightclub.com/,"night_club, bar, point_of_interest, establishment",49.2794223,-123.1299286
Great Canadian Casino Vancouver,3.9,4414,"2080 United Blvd, Coquitlam, BC V3K 6W3, Canada",https://greatcanadian.com/destinations/britishcolumbia/vancouver/,"casino, tourist_attraction, night_club, bar, restaurant, food, point_of_interest, establishment",49.2274458,-122.8374598
Canadian Tire,3.7,4457,"2290 Cambie St, Vancouver, BC V5Z 2T7, Canada",https://www.canadiantire.ca/en/store-details/bc/cambie-7th-bc-389.html?utm_source=google&utm_medium=lss&utm_content=389,"department_store, hardware_store, home_goods_store, point_of_interest, store, car_repair, establishment",49.2652952,-123.1137803
Best Buy,3.6,2094,"2220 Cambie St, Vancouver, BC V5Z 2T7, Canada",https://stores.bestbuy.ca/en-ca/bc/vancouver/2220-cambie-st,"electronics_store, point_of_interest, home_goods_store, store, establishment",49.2653402,-123.1143379
Canadian Tire,3.8,2742,"Marine Way Market, 7200 Market Crossing, Burnaby, BC V5J 0A2, Canada",https://www.canadiantire.ca/en/store-details/bc/burnaby-south-bc-603.html?utm_source=google&utm_medium=lss&utm_content=603,"department_store, car_repair, point_of_interest, home_goods_store, store, establishment",49.20032230000001,-122.9826438
Best Buy,3.6,2879,"Station Square, 6200 McKay Ave Unit 200, Burnaby, BC V5H 4M3, Canada",https://stores.bestbuy.ca/en-ca/bc/burnaby/station-square,"electronics_store, home_goods_store, point_of_interest, store, establishment",49.2268777,-123.0036137
Canadian Tire,3.9,2508,"8277 Ontario St, Vancouver, BC V5X 2W6, Canada",https://www.canadiantire.ca/en/store-details/bc/vancouver-sw-marine-bc-605.html?utm_source=google&utm_medium=lss&utm_content=605,"department_store, car_repair, point_of_interest, home_goods_store, store, establishment",49.20990930000001,-123.1075351
The UPS Store,3.2,122,"8623 Granville St, Vancouver, BC V6P 5A2, Canada",http://theupsstore.ca/146,"store, point_of_interest, establishment",49.20819179999999,-123.140818
Golf Town,3.7,310,"9751 Bridgeport Rd Unit 130, Richmond, BC V6X 1S3, Canada",https://locations.golftown.com/golf-town-4741f3af9224,"point_of_interest, store, establishment",49.1930805,-123.1145072
The UPS Store,3.8,171,"1001 W Broadway #101, Vancouver, BC V6H 4E4, Canada",http://theupsstore.ca/57/,"store, point_of_interest, establishment",49.2636045,-123.1273682
The UPS Store,3.3,111,"1015 Columbia St STE 104, New Westminster, BC V3M 6V3, Canada",http://theupsstore.ca/160,"point_of_interest, store, establishment",49.2011472,-122.9174175
,,,,,,,
The Home Depot,4,3102,"2700 Sweden Wy, Richmond, BC V6V 1K1, Canada",https://stores.homedepot.ca/bc/richmond/home-improvement-richmond-bc-7043.html?utm_source=google&utm_medium=organic&utm_campaign=local&utm_content=7043,"hardware_store, furniture_store, point_of_interest, home_goods_store, store, establishment",49.1939587,-123.0813904
The UPS Store,4,96,"15910 Fraser Hwy #102, Surrey, BC V4N 0X8, Canada",http://theupsstore.ca/327,"store, point_of_interest, establishment",49.1575326,-122.7826818
Vancouver Christmas Market,3.8,3492,"Jack Poole Plaza, 1055 Canada Pl, Vancouver, BC V6C 3G3, Canada",http://www.vancouverchristmasmarket.com/,"tourist_attraction, point_of_interest, store, establishment",49.2892151,-123.1176908
Canadian Tire,3.8,1334,"Coppersmith Corner Shopping Centre, 11388 Steveston Hwy, Richmond, BC V7A 5J5, Canada",https://www.canadiantire.ca/en/store-details/bc/s-richmond-bc-610.html?utm_source=google&utm_medium=lss&utm_content=610,"department_store, home_goods_store, point_of_interest, store, car_repair, establishment",49.13202509999999,-123.0980701
Rogers,3.5,117,"2918 W Broadway, Vancouver, BC V6K 2G8, Canada",https://www.rogers.com/stores/vancouver/arbutus-w-broadway,"point_of_interest, store, establishment",49.26402019999999,-123.1707416
Canadian Tire,3.5,2249,"7878 120 St, Surrey, BC V3W 3N2, Canada",https://www.canadiantire.ca/en/store-details/bc/surrey-(scott-road)-bc-678.html?utm_source=google&utm_medium=lss&utm_content=678,"department_store, home_goods_store, store, car_repair, point_of_interest, establishment",49.1461587,-122.8891169
The UPS Store,3.2,80,"2818 Main St, Vancouver, BC V5T 0C1, Canada",http://theupsstore.ca/407,"point_of_interest, store, establishment",49.2599147,-123.1008798
The UPS Store,3.1,222,"5525 West Blvd, Vancouver, BC V6M 3W8, Canada",http://theupsstore.ca/205,"store, point_of_interest, establishment",49.23609899999999,-123.1557
Value Village,3.7,3611,"6415 Victoria Dr, Vancouver, BC V5P 3X5, Canada",https://stores.savers.com/bc/vancouver/valuevillage-thrift-store-2007.html,"book_store, clothing_store, furniture_store, home_goods_store, store, point_of_interest, establishment",49.2263357,-123.0660585
RONA Surrey (Fleetwood),3.8,1211,"16659 Fraser Hwy, Surrey, BC V4N 0E7, Canada",https://www.rona.ca/en/store/british-columbia/surrey/rona-surrey-fleetwood-61720?cm_mmc=organic_search-_-yext-_-gmb-_-website&utm_medium=organic_search&utm_source=yext&utm_campaign=gmb&utm_content=website,"furniture_store, point_of_interest, home_goods_store, store, establishment",49.15200429999999,-122.7605849
Best Buy,3.7,2927,"798 Granville St Suite 200, Vancouver, BC V6Z 3C3, Canada",https://stores.bestbuy.ca/en-ca/bc/vancouver/798-granville-st--suite-200,"electronics_store, home_goods_store, point_of_interest, store, establishment",49.28137599999999,-123.1195274
Canadian Tire,4,1697,"11969 200 St, Maple Ridge, BC V2X 3M7, Canada",https://www.canadiantire.ca/en/store-details/bc/maple-ridge-bc-481.html?utm_source=google&utm_medium=lss&utm_content=481,"department_store, home_goods_store, car_repair, point_of_interest, store, establishment",49.220628,-122.6683652
Canadian Tire,3.8,3890,"2830 Bentall St, Vancouver, BC V5M 4H4, Canada",https://www.canadiantire.ca/en/store-details/bc/vancouver-grandview-boundary-bc-604.html?utm_source=google&utm_medium=lss&utm_content=604,"department_store, home_goods_store, car_repair, point_of_interest, store, establishment",49.25960260000001,-123.031032
The UPS Store,3.9,139,"19567 Fraser Hwy, Surrey, BC V3S 6K7, Canada",http://theupsstore.ca/52,"store, point_of_interest, establishment",49.1150171,-122.6802427
Canadian Tire,3.3,2843,"7599 King George Blvd, Surrey, BC V3W 5A8, Canada",https://www.canadiantire.ca/en/store-details/bc/surrey-(newton)-bc-443.html?utm_source=google&utm_medium=lss&utm_content=443,"department_store, car_repair, point_of_interest, home_goods_store, store, establishment",49.1402574,-122.8477256
Best Buy,3.3,1574,"10153 King George Blvd Unit 3200, Surrey, BC V3T 2W1, Canada",https://stores.bestbuy.ca/en-ca/bc/surrey/10153-king-george-highway-unit-3200,"electronics_store, home_goods_store, point_of_interest, store, establishment",49.1860143,-122.8481866
,,,,,,,
The UPS Store,2.4,116,"1290 Howe St, Vancouver, BC V6Z 0C2, Canada",http://theupsstore.ca/424,"point_of_interest, store, establishment",49.2767617,-123.1284111
Kal Tire,3.9,506,"1390 Boundary Rd, Burnaby, BC V5K 4T6, Canada",https://www.kaltire.com/en/locations/?store=059-burnaby-store&utm_source=G&utm_medium=LPM&utm_campaign=KalTire,"car_repair, point_of_interest, store, establishment",49.272352,-123.02319
The UPS Store,2.9,205,"1641 Lonsdale Ave #187, North Vancouver, BC V7M 2J5, Canada",http://www.theupsstore.ca/187,"point_of_interest, store, establishment",49.3238198,-123.0725825
Canadian Tire,4,2446,"1350 Main St, North Vancouver, BC V7J 1C6, Canada",https://www.canadiantire.ca/en/store-details/bc/north-vancouver-main-bc-601.html?utm_source=google&utm_medium=lss&utm_content=601,"department_store, home_goods_store, store, car_repair, point_of_interest, establishment",49.30786639999999,-123.035205
OpenBox.ca,3.7,432,"1608 SE Marine Dr, Vancouver, BC V5P 2R6, Canada",http://www.openbox.ca/,"electronics_store, point_of_interest, store, establishment",49.2106666,-123.0736256
The UPS Store,2.2,227,"1489 Marine Dr, West Vancouver, BC V7T 1B8, Canada",http://theupsstore.ca/48,"point_of_interest, store, establishment",49.3283975,-123.1563409
Vancouver,,,"Vancouver, BC, Canada",http://vancouver.ca/,"locality, political",49.2827291,-123.1207375
The Parker Hotel Vancouver,3.8,1312,"1379 Howe St, Vancouver, BC V6Z 2R5, Canada",http://vancouverdowntownhotel.net/,"lodging, point_of_interest, establishment",49.27614959999999,-123.1301626
Best Western Plus Sands,4,1883,"1755 Davie St, Vancouver, BC V6G 1W5, Canada",https://www.bestwestern.com/en_US/book/hotel-rooms.62025.html?iata=00171880&ssob=BLBWI0004G&cid=BLBWI0004G:google:gmb:62025,"lodging, point_of_interest, establishment",49.2868666,-123.140883
Vancouver Extended Stay,4.2,51,"1288 W Georgia St #101, Vancouver, BC V6E 4R3, Canada",https://vancouverextendedstay.com/,"lodging, point_of_interest, establishment",49.28769419999999,-123.1267298
St Clair Hostel Vancouver,3.5,389,"577 Richards St, Vancouver, BC V6B 2Z5, Canada",http://www.stclairvancouver.com/,"lodging, point_of_interest, establishment",49.2826597,-123.1142066
North Vancouver,,,"North Vancouver, BC, Canada",http://www.cnv.org/,"locality, political",49.3199816,-123.0724139
Sandman Suites Vancouver-Davie Street,3.9,2108,"1160 Davie St, Vancouver, BC V6E 1N1, Canada",https://www.sandmanhotels.com/vancouver-davie-street?utm_source=google&utm_medium=maps&utm_campaign=vancouver_davie_street,"lodging, point_of_interest, establishment",49.28105679999999,-123.1327804
Kingston Hotel,3.7,409,"757 Richards St, Vancouver, BC V6B 3A6, Canada",https://www.kingstonhotelvancouver.com/,"lodging, point_of_interest, establishment",49.28073089999999,-123.1173501
Moda Hotel,3.8,1006,"900 Seymour St, Vancouver, BC V6B 0A8, Canada",http://www.modahotel.ca/,"lodging, point_of_interest, establishment",49.2794602,-123.1204262
Cambie Seymour Hostel,3.5,434,"515 Seymour St, Vancouver, BC V6B 3H6, Canada",https://cambiehostels.com/,"lodging, point_of_interest, establishment",49.2839752,-123.114175
HI Vancouver Downtown,4,706,"1114 Burnaby St, Vancouver, BC V6E 1P1, Canada",http://www.hihostels.ca/vancouverdowntown,"lodging, point_of_interest, establishment",49.2797782,-123.1328658
Days Inn by Wyndham Vancouver Downtown,3.2,1019,"921 W Pender St, Vancouver, BC V6C 1M2, Canada",https://www.wyndhamhotels.com/en-ca/days-inn/vancouver-british-columbia/days-inn-vancouver-downtown/overview?CID=LC:iqv0j1dklijly45:04088&iata=00093796,"lodging, point_of_interest, establishment",49.2863447,-123.1169025
Hotel Ambassador,3.1,134,"1212 Granville St, Vancouver, BC V6Z 1M4, Canada",http://hotelambassador.ca/,"lodging, point_of_interest, establishment",49.27681629999999,-123.126347
Barclay Hotel,3.6,986,"1348 Robson St, Vancouver, BC V6E 1C5, Canada",https://www.barclayhotel.ca/,"lodging, point_of_interest, establishment",49.28742,-123.1295879
Safeway New Westminster Station,4,2039,"800 Carnarvon St #220, New Westminster, BC V3M 0C3, Canada",https://www.safeway.ca/stores/safeway-new-westminster-station/?utm_source=G&utm_medium=lpm&utm_campaign=Sobeys,"grocery_or_supermarket, supermarket, florist, bakery, store, food, point_of_interest, establishment",49.201065,-122.91258
Real Canadian Superstore King George Highway,4,4992,"7550 King George Blvd, Surrey, BC V3W 2T2, Canada",https://www.realcanadiansuperstore.ca/store-locator/details/1521?utm_source=G&utm_medium=LPM&utm_campaign=Loblaws,"grocery_or_supermarket, supermarket, bakery, health, food, point_of_interest, store, establishment",49.13988,-122.842865
CurliQue Beauty Boutique,4.6,93,"410 Robson St, Vancouver, BC V6B 2W2, Canada",http://www.curliquebeauty.com/,"beauty_salon, hair_care, point_of_interest, store, establishment",49.27948,-123.1172668
Le Salon Hair Studio,4.1,17,"2429 Granville St, Vancouver, BC V6H 3G5, Canada",http://lesalonhair.ca/,"beauty_salon, hair_care, point_of_interest, establishment",49.2640402,-123.1388496
,,,,,,,
She To Shic Beauty Inc,4.2,32,"2315 W 41st Ave, Vancouver, BC V6M 2A3, Canada",,"beauty_salon, point_of_interest, establishment",49.2348646,-123.1603637
Le Petit Spa,4,101,"3080 W Broadway, Vancouver, BC V6K 2H1, Canada",https://www.lepetitspa.ca/,"beauty_salon, hair_care, spa, point_of_interest, health, establishment",49.2640245,-123.1735838
Minoko Nail Studio,4,128,"4500 Kingsway #1816, Burnaby, BC V5H 2W7, Canada",http://www.minokonailstudio.com/,"beauty_salon, point_of_interest, establishment",49.2291354,-123.0043694
Eccotique Spa & Salons,4.2,83,"19705 Fraser Hwy, Langley, BC V3A 7E9, Canada",https://www.eccotique.com/,"beauty_salon, hair_care, point_of_interest, establishment",49.11507179999999,-122.6739793
,,,,,,,
ProfessioNail,2.8,198,"2929 Barnet Hwy, Coquitlam, BC V3B 5R5, Canada",http://professionailcoquitlam.com/,"beauty_salon, point_of_interest, establishment",49.27889080000001,-122.7995305
Tan de Soleil Sun Tanning Studios Vancouver,4.6,94,"911 Denman St unit 210, Vancouver, BC V6G 2L9, Canada",http://www.tandesoleil.com/,"beauty_salon, point_of_interest, establishment",49.29039390000001,-123.1373521
"JennyV Makeup, Hair & Lashes",5,24,"1420 Parkway Blvd, Coquitlam, BC V3E 3J6, Canada",http://www.jennyvmakeup.com/,"hair_care, beauty_salon, point_of_interest, establishment",49.2959583,-122.8045673
La Nails,3.3,197,"7488 King George Blvd, Surrey, BC V3W 0H9, Canada",http://lanailsbc.com/,"beauty_salon, point_of_interest, establishment",49.13918210000001,-122.8431027
Arbutus Laser Centre,4.4,89,"2025 W Broadway #100, Vancouver, BC V6J 1Z6, Canada",http://arbutuslaser.com/?utm_source=gmb&utm_medium=organic,"spa, hospital, hair_care, beauty_salon, health, point_of_interest, establishment",49.2640897,-123.1511887
Legends Academy - Langley Campus,4.5,81,"20585 Fraser Hwy, Langley, BC V3A 4G4, Canada",https://maacademy.ca/,"university, beauty_salon, hair_care, spa, health, point_of_interest, establishment",49.1040048,-122.6524301
South Granville Laser & Skin Care Centre,2.6,5,"3195 Granville St #214, Vancouver, BC V6H 3K2, Canada",http://www.southgranvillelasercentre.com/,"hair_care, beauty_salon, spa, point_of_interest, health, establishment",49.2572656,-123.139092
,,,,,,,
Uptown Nails Inc,3.9,247,"555 6th St, New Westminster, BC V3L 5H1, Canada",https://m.facebook.com/uptownnailsinc,"beauty_salon, point_of_interest, establishment",49.21268560000001,-122.9194326
Noir Lash Lounge,3.6,52,"1150 Hamilton St, Vancouver, BC V6B 2S2, Canada",http://www.noirlashlounge.com/,"beauty_salon, point_of_interest, establishment",49.27529500000001,-123.1219285
Pacific Derm,4,93,"2425 Hemlock St #200, Vancouver, BC V6H 4E1, Canada",http://www.pacificderm.ca/,"hair_care, beauty_salon, spa, doctor, point_of_interest, health, store, establishment",49.26434500000001,-123.1364227
Pure Hair Salon,4.9,36,"4641 Main St, Vancouver, BC V5V 3R6, Canada",http://www.purehairsalon.com/,"beauty_salon, hair_care, point_of_interest, establishment",49.242954,-123.1016274
,,,,,,,
Fairview Plastic Surgery and Skin Care Centre,4.5,8,"999 W Broadway #480, Vancouver, BC V5Z 1K5, Canada",https://www.fairviewplasticsurgery.com/,"spa, beauty_salon, hair_care, store, health, point_of_interest, establishment",49.26357519999999,-123.1261338
Eccotique Spa & Salon,4.2,87,"19800 Lougheed Hwy. 360 #360, Pitt Meadows, BC V3Y 2W1, Canada",http://eccotique.com/,"spa, beauty_salon, point_of_interest, establishment",49.2214279,-122.6731115
Elan Beauty,3.3,33,"922 W Broadway, Vancouver, BC V5Z 1K7, Canada",,"beauty_salon, spa, hair_care, health, point_of_interest, establishment",49.2631131,-123.1249706
Halo Salon,4.7,94,"2771 Arbutus St, Vancouver, BC V6K 4V1, Canada",http://www.halosalon.ca/,"beauty_salon, point_of_interest, establishment",49.2614179,-123.1532636
Koto Salon,4.3,16,"2156 E Hastings St, Vancouver, BC V5L 1V1, Canada",,"beauty_salon, point_of_interest, establishment",49.28101299999999,-123.0604884
Great Clips,4,230,"20821 Fraser Hwy Ste 45, Langley, BC V3A 4G7, Canada",https://salons.greatclips.com/ca/bc/langley/20821-fraser-hwy?utm_source=google&utm_medium=organic&utm_campaign=gmb,"beauty_salon, hair_care, point_of_interest, establishment",49.10276140000001,-122.645461
Abantu Beauty Products Ltd,3.9,75,"3596 Kingsway #102, Vancouver, BC V5R 5L7, Canada",https://www.instagram.com/abantuhair/,"hair_care, health, point_of_interest, store, establishment",49.23190870000001,-123.0267158
A Salon,4.4,24,"1015 Burrard St, Vancouver, BC V6Z 1Y5, Canada",http://www.asalon.ca/,"hair_care, point_of_interest, establishment",49.2808859,-123.1269583
,,,,,,,
Talking Heads,4.4,14,"1226 56 St, Delta, BC V4L 2A4, Canada",,"hair_care, beauty_salon, point_of_interest, establishment",49.02552569999999,-123.0675969
Beauty Box Esthetics,4.8,17,"2760 W Broadway #214, Vancouver, BC V6K 4M2, Canada",http://www.beautyboxesthetics.com/,"beauty_salon, hair_care, spa, point_of_interest, establishment",49.2639351,-123.1678031
Air Plus Hair Salon at Metrotown,4,336,"4700 Kingsway upper level, Burnaby, BC V5H 4M1, Canada",http://airplushairsalon.ca/,"hair_care, beauty_salon, point_of_interest, establishment",49.2272107,-123.0003977
Khoobsurat Day Spa Salon,3.6,77,"13745 72 Ave, Surrey, BC V3W 2P2, Canada",,"beauty_salon, hair_care, point_of_interest, establishment",49.1339815,-122.841267
,,,,,,,
Studeo Gyms Vancouver,4.7,66,"847 Hornby St, Vancouver, BC V6Z 2G3, Canada",https://studeogyms.com/fitness-club/vancouver/,"gym, physiotherapist, health, point_of_interest, establishment",49.2819491,-123.1230933
Edmonds Community Centre,3.9,508,"7433 Edmonds St, Burnaby, BC V3N 1A8, Canada",http://www.burnaby.ca/edmonds,"gym, night_club, bar, health, school, point_of_interest, establishment",49.22084619999999,-122.9476143
Yoga in Daily Life Cowichan,5,4,"223 W Broadway #200, Vancouver, BC V5Y 1P5, Canada",http://www.vanyoga.com/,"gym, point_of_interest, health, establishment",49.26325069999999,-123.1101592
Steve Nash Sports Club (Closed),2.7,275,"5500 Kingsway, Burnaby, BC V5H 2G2, Canada",,"gym, health, point_of_interest, establishment",49.22330780000001,-122.9852016
Contenders Boxing Classes & Training,5,45,"595 Burrard Street, Bentall 3, Lower Plaza Unit #311, Vancouver, BC V7X 1L7, Canada",https://www.contenders.ca/,"gym, point_of_interest, health, establishment",49.2859546,-123.11939
GoodLife Fitness Burnaby Northgate,3.8,793,"3433 North Rd, Burnaby, BC V3J 0A9, Canada",https://www.goodlifefitness.com/clubs/club.213.html?utm_source=G&utm_medium=LPM&utm_campaign=GoodlifeFitness,"gym, point_of_interest, health, establishment",49.252692,-122.893694
,,,,,,,
Fit4Less,3.7,140,"19800 Lougheed Hwy. Suite 201, Pitt Meadows, BC V3Y 2W1, Canada",https://www.fit4less.ca/british-columbia/pitt-meadows/pitt-meadows?utm_source=G&utm_medium=lpm&utm_campaign=fit4less,"gym, point_of_interest, health, establishment",49.22004499999999,-122.672602
Envision Physiotherapy,4.8,69,"3077 Granville St SUITE 201, Vancouver, BC V6H 3J9, Canada",http://www.envisionphysio.com/,"physiotherapist, gym, point_of_interest, health, establishment",49.25826729999999,-123.1391763
She's FIT!,3.9,419,"4277 Kingsway M35, Burnaby, BC V5H 1P1, Canada",https://www.trevorlindenfitness.com/metrotown/?utm_source=extnet&utm_medium=yext,"gym, health, point_of_interest, establishment",49.2319544,-123.0094434
Britannia Information Centre,4.1,38,"1661 Napier St, Vancouver, BC V5L 4X4, Canada",http://www.britanniacentre.org/,"gym, library, health, point_of_interest, establishment",49.275066,-123.0704232
One Yoga Vancouver,4.8,54,"156 E 7th Ave, Vancouver, BC V5T 1M5, Canada",https://www.oneyogavan.com/,"gym, point_of_interest, health, establishment",49.2645254,-123.1016222
Westside Training: Vancouver Gym,4.8,31,"2520 Columbia St, Vancouver, BC V5Y 3E9, Canada",http://www.westside-training.com/,"gym, point_of_interest, health, establishment",49.26269469999999,-123.1093022
30 Minute Hit,4.9,25,"20285 Stewart Crescent #204, Maple Ridge, BC V2X 8G1, Canada",https://www.30minutehit.com/locations/gym/maple-ridge-kickboxing-boxing-fitness.html,"gym, point_of_interest, health, establishment",49.210747,-122.660452
Yoga West,4.7,21,"2662 W 4th Ave, Vancouver, BC V6K 1P7, Canada",http://www.yogawest.ca/,"gym, point_of_interest, health, establishment",49.2682007,-123.1652762
Club16 Trevor Linden Fitness,3.9,922,"2635 Barnet Hwy, Coquitlam, BC V3E 1K9, Canada",https://www.trevorlindenfitness.com/coquitlam/?utm_source=extnet&utm_medium=yext,"gym, point_of_interest, health, establishment",49.27836059999999,-122.8131893
Jump Gymnastics,4.1,39,"555 W 12th Ave #155, Vancouver, BC V5Z 3X7, Canada",http://jumpgymnastics.ca/,"gym, point_of_interest, health, establishment",49.260648,-123.1169166
Vancouver Phoenix Gymnastics,3.9,55,"4588 Clancy Loranger Way, Vancouver, BC V5Y 4B6, Canada",https://www.phoenixgymnastics.com/,"gym, point_of_interest, health, establishment",49.2429804,-123.1087086
Vancouver Corporate Yoga,4.7,20,"Lower Plaza, Bentall 4, 1055 Dunsmuir St, Vancouver, BC V7X 1L3, Canada",http://www.vancouvercorporateyoga.com/,"gym, point_of_interest, health, establishment",49.2864943,-123.1214363
YYOGA Kitsilano,3.7,132,"1915 W 4th Ave, Vancouver, BC V6J 1M7, Canada",http://www.yyoga.ca/locations/kitsilano,"gym, spa, health, point_of_interest, establishment",49.26827790000001,-123.1485232
Club16 Trevor Linden Fitness,3.7,819,"1055 Canada Pl unit 50, Vancouver, BC V6C 0C3, Canada",https://www.trevorlindenfitness.com/downtown-vancouver/?utm_source=extnet&utm_medium=yext,"gym, point_of_interest, health, establishment",49.2895457,-123.1162738
Steve Nash Sports Club (Closed),3,174,"9855 Austin Ave #262, Burnaby, BC V3J 1N4, Canada",,"gym, health, point_of_interest, establishment",49.2513656,-122.8962783
Newton Recreation Centre,4,923,"13730 72 Ave, Surrey, BC V3W 2P4, Canada",http://www.surrey.ca/culture-recreation/7325.aspx,"gym, point_of_interest, health, establishment",49.1325852,-122.8420256
YYOGA Northshore Elements,4,61,"1233 Lynn Valley Rd #231, North Vancouver, BC V7J 0A1, Canada",http://www.yyoga.ca/locations/northshore-elements,"spa, gym, point_of_interest, health, establishment",49.3359318,-123.0388642
North Shore Winter Club,3.8,111,"1325 E Keith Rd, North Vancouver, BC V7J 1J3, Canada",https://www.nswc.ca/,"cafe, bar, gym, health, food, point_of_interest, establishment",49.3121886,-123.0371245
Le Physique Health and Fitness Personal Trainers,4.9,73,"662 Leg in Boot Square, Vancouver, BC V5Z 4B3, Canada",https://lephysique.com/,"gym, health, point_of_interest, establishment",49.2672601,-123.1190669
CrossFit BC,4.8,84,"278 E 1st Ave, Vancouver, BC V5T 1A6, Canada",http://www.crossfitbc.com/,"gym, point_of_interest, health, establishment",49.26860300000001,-123.098128
Vancouver Pilates Centre,5,19,"719 W 16th Ave, Vancouver, BC V5Z 1R5, Canada",https://www.vancouverpilatescentre.com/,"gym, point_of_interest, health, establishment",49.2571442,-123.1206715
Surrey Football Club,3.9,42,"7395 128 St, Surrey, BC V3W 4E4, Canada",http://www.surreyfc.com/,"gym, health, point_of_interest, establishment",49.1373318,-122.8697818
The Pilates Studio at Treloar,5,2,"595 W 8th Ave, Vancouver, BC V5Z 1C6, Canada",http://www.treloarphysio.com/,"gym, point_of_interest, health, establishment",49.2643672,-123.1172346
Club16 Trevor Linden Fitness,3.8,857,"7155 Kingsway Highgate Village Mall, Burnaby, BC V5E 2V1, Canada",https://www.trevorlindenfitness.com/burnaby/?utm_source=extnet&utm_medium=yext,"gym, health, point_of_interest, establishment",49.21900439999999,-122.9556789
Fisico Personal Training Studio,5,3,"1529 W 6th Ave, Vancouver, BC V6J 1R1, Canada",http://www.personaltrainervancouver.com/,"gym, point_of_interest, health, establishment",49.2663425,-123.1396713
Platinum Athletic Club,3.6,315,"7635 King George Blvd, Surrey, BC V3W 5B1, Canada",,"gym, point_of_interest, health, establishment",49.1416259,-122.847831
Westside Kickboxing Gym,4.8,44,"#108, 550 W 6th Ave, Vancouver, BC V5Z 1A1, Canada",http://www.westsidekickboxing.com/,"gym, point_of_interest, health, establishment",49.2657284,-123.1168341
Clearpoint Health Network - False Creek Healthcare Centre,3.8,73,"555 W 8th Ave 6th Floor Suite B, Vancouver, BC V5Z 1C6, Canada",https://www.clearpointhealth.ca/surgery-centres/vancouver-bc/?utm_campaign=practice-vancouver&utm_medium=local&utm_source=google,"spa, hospital, doctor, health, point_of_interest, establishment",49.2643743,-123.1161305
Essential Day Spa,4.4,14,"4356 W 10th Ave, Vancouver, BC V6R 2H7, Canada",http://www.essentialdayspa.com/,"spa, point_of_interest, establishment",49.26366050000001,-123.2046313
Lumina Skin Care Centre,5,83,"3030 Lincoln Ave, Coquitlam, BC V3B 6B4, Canada",https://luminaskincare.ca/,"spa, point_of_interest, establishment",49.2785714,-122.7919391
BoBo Massage Spa,3.8,39,"8580 Alexandra Rd #1090, Richmond, BC V6X 4B3, Canada",,"spa, point_of_interest, establishment",49.17764400000001,-123.1276581
Bex massage,4.3,25,"2525 Arbutus St, Vancouver, BC V6J 4S2, Canada",,"spa, point_of_interest, establishment",49.2634828,-123.1532121
Spaphoria,2.7,6,"5182 Victoria Dr, Vancouver, BC V5P 3V2, Canada",http://havlik.ca/home.html,"health, spa, point_of_interest, establishment",49.23764320000001,-123.0651482
Oceancity Massage & Wellness Ltd.,4.8,45,"404, 698 Seymour St 4th floor, Vancouver, BC V6B 3K3, Canada",http://massagevancouver.janeapp.com/,"spa, point_of_interest, establishment",49.2818473,-123.11665
Polo Health + Longevity Centre,4.8,42,"711 Columbia St, New Westminster, BC V3M 1E2, Canada",http://www.polohealth.com/,"spa, hospital, point_of_interest, health, establishment",49.20212170000001,-122.9102769
Balanced Anatomy,4.4,35,"4338 Main St, Vancouver, BC V5V 3P9, Canada",https://balancedanatomyinc.com/,"spa, point_of_interest, health, establishment",49.246344,-123.1010687
Metropolitan Relaxation Studio,5,1,"350 E 2nd Ave Suite 304, Vancouver, BC V5T 4R8, Canada",http://www.metropolitanrelaxation.com/,"spa, beauty_salon, health, point_of_interest, establishment",49.266594,-123.0970093
Dr Sheina Macadam Plastic Surgery & Aesthetics,4.8,56,"777 W Broadway #1000, Vancouver, BC V5Z 1J5, Canada",http://www.drsheinamacadam.com/,"doctor, spa, point_of_interest, health, establishment",49.263485,-123.1215336
Mayflower Beauty Spa,4.2,12,"138 Keefer Pl, Vancouver, BC V6B 6N7, Canada",http://mayflowerbeauty.com/,"spa, beauty_salon, point_of_interest, establishment",49.2796694,-123.1082611
Kinjou Lashes Beauty Studio,4,49,"2078 W Broadway, Vancouver, BC V6J 1Z4, Canada",http://kinjoulashes.com/,"beauty_salon, spa, point_of_interest, establishment",49.2636437,-123.1517919
MIMCO STUDIO - All Beauty Spa,4.1,14,"410 E Broadway, Vancouver, BC V5T 1X2, Canada",,"spa, point_of_interest, establishment",49.26240749999999,-123.0956724
Payal Beauty Heights Salon & Spa,3.3,73,"8140 128 St #342A, Surrey, BC V3W 1R1, Canada",,"beauty_salon, spa, clothing_store, hair_care, store, health, point_of_interest, establishment",49.15032,-122.8651651
Tip To Toe Nails & Esthetics,3.5,61,"5229 Ladner Trunk Rd, Delta, BC V4K 1W4, Canada",,"beauty_salon, spa, point_of_interest, establishment",49.0913088,-123.0801807
Migun Co,5,1,"4351 Number 3 Rd Unit 168, Richmond, BC V6X 2C3, Canada",,"spa, point_of_interest, establishment",49.1824511,-123.1370902
Lexi Nails & Spa - Nail Salon Richmond,3.8,293,"#8030, 11688 Steveston Hwy, Richmond, BC V7A 4E8, Canada",https://lexinailsandsparichmond.com/,"beauty_salon, hair_care, spa, point_of_interest, establishment",49.1319651,-123.0928834
Walmart Supercentre,3.3,1495,"805 Boyd St, New Westminster, BC V3M 5G7, Canada",https://www.walmart.ca/en/stores-near-me/new-westminster-supercentre-5777?utm_source=local&utm_medium=listings&utm_campaign=sc&cmpid=gmb,"department_store, supermarket, clothing_store, furniture_store, home_goods_store, grocery_or_supermarket, electronics_store, food, point_of_interest, store, establishment",49.1917364,-122.9508853
AX Armani Exchange,3.8,128,"4700 Kingsway Suite 2173, Burnaby, BC V5H 4M1, Canada",https://locations.armani.com/ax-armani-exchange/canada/ax-armani-exchange-burnaby-metropolis-at-metrotown,"clothing_store, point_of_interest, store, establishment",49.2264626,-123.0006755
Marimekko Vancouver,4.4,31,"851 Homer St B, Vancouver, BC V6B 0H4, Canada",https://marimekkovancouver.com/,"clothing_store, point_of_interest, store, establishment",49.2789794,-123.1178764
"Toys""R""Us",3.9,734,"1154-1174 W Broadway, Vancouver, BC V6H 1G5, Canada",https://www.toysrus.ca/en/storelocator?utm_source=Google&utm_medium=lpm&utm_campaign=toysrus,"book_store, clothing_store, point_of_interest, store, establishment",49.2632717,-123.13058
Foot Locker,3.6,131,"2929 Barnet Hwy #1406, Coquitlam, BC V3B 5R5, Canada",https://stores.footlocker.ca/en/bc/coquitlam/2929-barnet-highway-99007.html,"shoe_store, clothing_store, point_of_interest, store, establishment",49.2792623,-122.7990885
Urban Planet,3.9,366,"4700, 4800 Kingsway Unit #M35 Unit #M35, Burnaby, BC V5H 4J2, Canada",https://urban-planet.com/collections/up_new_shop-all-new?utm_source=GMB,"clothing_store, shoe_store, point_of_interest, store, establishment",49.2258103,-122.9971568
Urban Planet,4,150,"935 Marine Dr Unit #1 & 3, North Vancouver, BC V7P 1S2, Canada",https://urban-planet.com/collections/up_new_shop-all-new?utm_source=GMB,"clothing_store, shoe_store, store, point_of_interest, establishment",49.3222403,-123.1006167
Urban Planet,3.9,384,"10153 King George Blvd Unit #204/206, Surrey, BC V3T 2W1, Canada",https://urban-planet.com/collections/up_new_shop-all-new?utm_source=GMB,"clothing_store, shoe_store, point_of_interest, store, establishment",49.186455,-122.847641
Hudson's Bay,3.9,1711,"6060 Minoru Blvd, Richmond, BC V6Y 1Y2, Canada",https://www.thebay.com/,"store, shoe_store, clothing_store, point_of_interest, department_store, establishment",49.1691639,-123.1384592
Dynamite,3.4,123,"4700 Kingsway #2304, Burnaby, BC V5H 4P2, Canada",https://www.dynamiteclothing.com/ca?utm_source=google&utm_medium=local&utm_campaign=gmb,"clothing_store, store, point_of_interest, establishment",49.22706479999999,-122.9992889
Hudson's Bay,3.8,722,"650 W 41st Ave, Vancouver, BC V5Z 2M9, Canada",https://www.thebay.com/,"department_store, shoe_store, clothing_store, store, point_of_interest, establishment",49.23251150000001,-123.119755
Hudson's Bay,3.9,4759,"674 Granville St, Vancouver, BC V6C 1Z6, Canada",https://www.thebay.com/,"store, department_store, shoe_store, clothing_store, furniture_store, point_of_interest, home_goods_store, establishment",49.2825186,-123.1177469
Arc'teryx Equipment Inc. Corporate Headquarters,3.5,138,"2220 Dollarton Hwy #110, North Vancouver, BC V7H 1A8, Canada",http://www.arcteryx.com/,"clothing_store, point_of_interest, store, establishment",49.3061758,-123.013317
Sports Junkies Clearance Center,4,1158,"102 W Broadway, Vancouver, BC V5Y 1P3, Canada",http://www.sportsjunkies.com/,"clothing_store, point_of_interest, store, establishment",49.2628835,-123.1070967
Tommy Bahama,4.6,37,"2002 Park Royal S Suite 982, West Vancouver, BC V7T 2W4, Canada",https://www.tommybahama.com/store/Park%20Royal,"clothing_store, point_of_interest, store, establishment",49.325259,-123.1374005
Walmart Supercentre,3.5,1551,"2355 160 St, Surrey, BC V3Z 9N6, Canada",https://www.walmart.ca/en/stores-near-me/surrey-south-supercentre-5853?utm_source=local&utm_medium=listings&utm_campaign=sc&cmpid=gmb,"department_store, supermarket, clothing_store, electronics_store, grocery_or_supermarket, furniture_store, point_of_interest, home_goods_store, store, food, establishment",49.04430379999999,-122.7815245
SEPHORA,4,807,"701 W Georgia St, Vancouver, BC V7Y 1E4, Canada",https://www.sephora.com/happening/stores/vancouver-pacific-centre?utm_source=gmb&utm_medium=Yext,"clothing_store, store, point_of_interest, establishment",49.28333,-123.1176931
Vancouver Whitecaps FC Team Store,4.1,83,"385 Water St, Vancouver, BC V6B 5C6, Canada",http://whitecapsfcstore.com/,"clothing_store, point_of_interest, store, establishment",49.28482349999999,-123.1105755
Urban Outfitters,3.9,804,"822-830 Granville St, Vancouver, BC V6Z 1K3, Canada",https://www.urbanoutfitters.com/en-ca/stores/downtown-vancouver?utm_medium=organic&utm_source=google&utm_campaign=local&utm_content=88,"clothing_store, shoe_store, home_goods_store, point_of_interest, store, establishment",49.2808252,-123.1200835
The Party Bazaar,3.6,158,"1296 Station St, Vancouver, BC V6A 2X3, Canada",http://www.thepartybazaar.com/,"clothing_store, point_of_interest, home_goods_store, store, establishment",49.2729446,-123.0981271
Feuille Luxury,4.4,87,"565 Howe St, Vancouver, BC V6C 2C2, Canada",https://www.feuilleshop.com/,"clothing_store, point_of_interest, store, establishment",49.284703,-123.117069
Sport Chek,3.4,519,"18 W Broadway, Vancouver, BC V5Y 1P2, Canada",https://www.sportchek.ca/en/store-details/bc/broadway-sport-chek-327.html?utm_source=google&utm_medium=organic&utm_content=327,"shoe_store, bicycle_store, clothing_store, point_of_interest, store, establishment",49.2627785,-123.1056856
More Madness Costumes,4.2,71,"5558 Lane St, Burnaby, BC V5J 1E8, Canada",http://www.moremadnesscostumes.com/,"clothing_store, point_of_interest, store, establishment",49.22231590000001,-122.9839355
Value Village,3.8,2320,"2739 Barnet Hwy, Coquitlam, BC V3E 1K9, Canada",https://stores.savers.com/bc/coquitlam/valuevillage-thrift-store-2103.html,"book_store, furniture_store, clothing_store, home_goods_store, store, point_of_interest, establishment",49.2784038,-122.8106126
ALDO,3.8,230,"701 W Georgia St D064A, Vancouver, BC V7Y 1G5, Canada",https://www.aldoshoes.com/ca/en?utm_source=G&utm_medium=local&utm_campaign=google-local,"shoe_store, store, point_of_interest, establishment",49.28302110000001,-123.1186552
ALDO,3.7,118,"2929 Barnet Hwy G2110, Port Coquitlam, BC V3B 5R5, Canada",https://www.aldoshoes.com/ca/en?utm_source=G&utm_medium=local&utm_campaign=google-local,"shoe_store, point_of_interest, store, establishment",49.2781664,-122.7990752
ALDO,3.6,206,"10355 152 St #2077, Surrey, BC V3R 7C1, Canada",https://www.aldoshoes.com/ca/en?utm_source=G&utm_medium=local&utm_campaign=google-local,"shoe_store, point_of_interest, store, establishment",49.1902404,-122.8034613
ALDO,3.7,71,"19705 Fraser Hwy #228, Langley, BC V3A 7E9, Canada",https://www.aldoshoes.com/ca/en?utm_source=G&utm_medium=local&utm_campaign=google-local,"shoe_store, point_of_interest, store, establishment",49.1150574,-122.6750669
Mark's,3.8,456,"Kingsgate Mall, 370 E Broadway Unit 117, Vancouver, BC V5T 4G5, Canada",https://www.marks.com/en/store-details/bc/kingsgate-134.html?utm_source=google&utm_medium=GMB&utm_campaign=GMB_Listing,"clothing_store, shoe_store, point_of_interest, store, establishment",49.2624971,-123.0970218
Sterling Associates Ltd,,,"1122 Mainland St, Vancouver, BC V6B 5L1, Canada",http://sterlingiaq.com/,"shoe_store, point_of_interest, store, establishment",49.2752349,-123.1208474
Mark's,4,517,"1885 W 4th Ave, Vancouver, BC V6J 1M4, Canada",https://www.marks.com/en/store-details/bc/vancouver-west-251.html?utm_source=google&utm_medium=GMB&utm_campaign=GMB_Listing,"clothing_store, shoe_store, point_of_interest, store, establishment",49.2682896,-123.147679
Ardene,3.6,113,"12463 88 Avenue #3 & 4, Surrey, BC V3W 1P8, Canada",https://www.ardene.com/?utm_source=google&utm_medium=googlemaps,"clothing_store, shoe_store, point_of_interest, store, establishment",49.1641408,-122.8782498
,,,,,,,
Hip Baby,4.6,47,"2110 W 4th Ave, Vancouver, BC V6K 1N6, Canada",http://www.hipbaby.com/,"shoe_store, clothing_store, store, point_of_interest, establishment",49.2680001,-123.1531004
The Shoe Company,4,124,"20150 Langley Bypass, Langley, BC V3A 9J8, Canada",https://stores.theshoecompany.ca/bc/langley/20150-langley-bypass?y_source=1_MTU2MzYzMjktNzE1LWxvY2F0aW9uLndlYnNpdGU%3D,"shoe_store, store, point_of_interest, establishment",49.1120593,-122.6661273
Hudson's Bay,3.8,2423,"4850 Kingsway, Burnaby, BC V5H 4P2, Canada",https://www.thebay.com/,"department_store, shoe_store, clothing_store, point_of_interest, store, establishment",49.2257936,-122.9958169
SAS Comfort Shoes,4.1,85,"5900 Kingsway, Burnaby, BC V5J 1H1, Canada",http://www.mysasshoes.ca/,"shoe_store, store, point_of_interest, establishment",49.22102899999999,-122.977077
Running Room,3.7,66,"Westwood Centre, 2748 Lougheed Hwy. #202, Port Coquitlam, BC V3B 6P2, Canada",https://ca.shop.runningroom.com/en_ca/port-coquitlam-store?utm_source=G&utm_medium=lpm&utm_campaign=runningroom,"shoe_store, clothing_store, point_of_interest, store, establishment",49.27194300000001,-122.789084
Sport Chek,3.8,388,"12101 72 Ave #120, Surrey, BC V3W 2M1, Canada",https://www.sportchek.ca/en/store-details/bc/strawberry-hill-sport-chek-344.html?utm_source=google&utm_medium=organic&utm_content=344,"bicycle_store, shoe_store, clothing_store, point_of_interest, store, establishment",49.13552339999999,-122.8889057
ECCO Robson Street,4,68,"1006 Robson St, Vancouver, BC V6E 1A7, Canada",https://ca.ecco.com/?utm_source=yext&utm_medium=extnet&utm_campaign=1044245,"shoe_store, store, point_of_interest, establishment",49.28338840000001,-123.123305
Michael Kors,3.7,103,"701 W Georgia St Space #R124, Vancouver, BC V7Y 1G5, Canada",https://locations.michaelkors.com/ca/en/bc/vancouver/701-w-georgia-st,"shoe_store, clothing_store, point_of_interest, store, establishment",49.2833332,-123.117736
Sport Chek,3.8,484,"6551 Number 3 Rd Unit 1140, Richmond, BC V6Y 2B6, Canada",https://www.sportchek.ca/en/store-details/bc/richmond-sport-chek-272.html?utm_source=google&utm_medium=organic&utm_content=272,"bicycle_store, shoe_store, clothing_store, store, point_of_interest, establishment",49.1654755,-123.1385577
Sport Chek,3.4,299,"1000 Park Royal, Mall South, West Vancouver, BC V7T 1A1, Canada",https://www.sportchek.ca/en/store-details/bc/park-royal-sport-chek-334.html?utm_source=google&utm_medium=organic&utm_content=334,"bicycle_store, clothing_store, shoe_store, point_of_interest, store, establishment",49.3250433,-123.1380896
Mark's,3.9,618,"7908 120 St, Surrey, BC V3W 3N2, Canada",https://www.marks.com/en/store-details/bc/surrey-delta-48.html?utm_source=google&utm_medium=GMB&utm_campaign=GMB_Listing,"clothing_store, shoe_store, point_of_interest, store, establishment",49.1470412,-122.8883051
Sport Chek,3.5,303,"10355 152 St Unit 1214, Surrey, BC V3R 7B7, Canada",https://www.sportchek.ca/en/store-details/bc/guildford-town-centre-sport-chek-369.html?utm_source=google&utm_medium=organic&utm_content=369,"bicycle_store, shoe_store, clothing_store, point_of_interest, store, establishment",49.1898069,-122.8033182
Sport Chek,3.5,305,"9855 Austin Ave Unit #102, Burnaby, BC V3J 1N4, Canada",https://www.sportchek.ca/en/store-details/bc/city-of-lougheed-sport-chek-276.html?utm_source=google&utm_medium=organic&utm_content=276,"shoe_store, bicycle_store, clothing_store, point_of_interest, store, establishment",49.25200630000001,-122.8954904
Nike Metrotown,4,942,"4700 Kingsway #1221, Burnaby, BC V5H 4M1, Canada",https://www.nike.com/ca/retail/s/nike-metrotown?cp=84620811901_seo_?cp=84620811901_seo_&y_source=1_MTE4MzU2MDEtNzE1LWxvY2F0aW9uLndlYnNpdGU=,"shoe_store, clothing_store, point_of_interest, store, establishment",49.2265467,-123.0014161
Sport Chek,3.7,871,"Major 1, 4700 Kingsway, Burnaby, BC V5H 4M1, Canada",https://www.sportchek.ca/en/store-details/bc/metropolis-@-metrotown-sport-chek-392.html?utm_source=google&utm_medium=organic&utm_content=392,"bicycle_store, shoe_store, clothing_store, point_of_interest, store, establishment",49.2266242,-123.0024541
Hudson's Bay,3.8,2055,"1400 152 St, Surrey, BC V3R 7C1, Canada",https://www.thebay.com/,"department_store, shoe_store, clothing_store, store, point_of_interest, establishment",49.1906025,-122.8030338
adidas Store Burnaby,4.1,29,"4567 Lougheed Hwy. Unit 0410, Burnaby, BC V5C 3Z6, Canada",https://go.adidas.com/ihha/11c0ab86,"shoe_store, clothing_store, point_of_interest, store, establishment",49.268154,-123.00058
Hudson's Bay,3.7,751,"725 Park Royal N, West Vancouver, BC V7T 1H9, Canada",https://www.thebay.com/,"store, department_store, shoe_store, clothing_store, point_of_interest, establishment",49.3282378,-123.135851
Eugene Choo,4.8,38,"3683 Main St, Vancouver, BC V5V 3N6, Canada",http://www.eugenechoo.com/,"clothing_store, shoe_store, point_of_interest, store, establishment",49.252046,-123.1011642
Mark's,3.9,524,"King's Cross Shopping Ctr, 7488 King George Blvd #450, Surrey, BC V3W 0H9, Canada",https://www.marks.com/en/store-details/bc/king-cross-370.html?utm_source=google&utm_medium=GMB&utm_campaign=GMB_Listing,"clothing_store, shoe_store, point_of_interest, store, establishment",49.13828650000001,-122.842594
Sport Chek,3.7,320,"19705 Fraser Hwy #140, Langley, BC V3A 7E9, Canada",https://www.sportchek.ca/en/store-details/bc/langley-sport-chek-385.html?utm_source=google&utm_medium=organic&utm_content=385,"bicycle_store, clothing_store, shoe_store, point_of_interest, store, establishment",49.113907,-122.6765439
Mark's,3.6,335,"Coppersmith Corner S.C, 11380 Steveston Hwy Unit 120, Richmond, BC V7A 5J5, Canada",https://www.marks.com/en/store-details/bc/steveston-hwy-and-hwy-99-56.html?utm_source=google&utm_medium=GMB&utm_campaign=GMB_Listing,"clothing_store, shoe_store, store, point_of_interest, establishment",49.1325961,-123.0993211
Swarovski,4.2,19,"2002 Park Royal S, West Vancouver, BC V7T 2W4, Canada",https://www.swarovski.com/en_GB-CA/,"jewelry_store, point_of_interest, store, establishment",49.3253803,-123.1367867
Cartier,3.7,282,"751 Burrard St, Vancouver, BC V6Z 2V6, Canada",https://stores.cartier.com/canada/bc/vancouver/751-burrard-street,"jewelry_store, clothing_store, point_of_interest, store, establishment",49.2840459,-123.1220525
Claire's,3.9,83,"762 Granville St, Vancouver, BC V6Z 3C3, Canada",https://stores.claires.com/bc/vancouver/2709.html,"jewelry_store, point_of_interest, store, establishment",49.2817034,-123.1190722
Montecristo Jewellers,3.8,37,"406 Hornby St, Vancouver, BC V6C 0A6, Canada",http://montecristo1978.com/,"jewelry_store, point_of_interest, store, establishment",49.28624800000001,-123.1161445
J&M Coin & Jewellery Ltd,3.9,287,"1654 Kingsway, Vancouver, BC V5N 2S1, Canada",http://www.jandmcoins.com/,"jewelry_store, point_of_interest, store, establishment",49.24757460000001,-123.0707225
Blue Ruby Jewellery,3.9,49,"4700 Kingsway, Burnaby, BC V5H 4M1, Canada",http://www.blueruby.com/,"jewelry_store, point_of_interest, store, establishment",49.2266734,-123.0006076
Blue Ruby Jewellery,3.8,33,"1089 Robson St, Vancouver, BC V6E 1V9, Canada",http://www.blueruby.com/,"jewelry_store, store, point_of_interest, establishment",49.28454869999999,-123.1245507
Era Design Inc,4.7,88,"1795 Venables St, Vancouver, BC V5L 2H5, Canada",http://www.eradesign.ca/,"jewelry_store, point_of_interest, store, establishment",49.2768225,-123.0686176
Spence Diamonds,4,366,"888 Burrard St, Vancouver, BC V6Z 2K9, Canada",http://spencediamonds.com/,"jewelry_store, point_of_interest, store, establishment",49.2822067,-123.1238037
,,,,,,,
,,,,,,,
Blue Ruby Jewellery,4.3,7,"2125 W 41st Ave, Vancouver, BC V6M 1Z6, Canada",http://www.blueruby.com/,"jewelry_store, clothing_store, store, point_of_interest, establishment",49.2347,-123.1560921
Contoli Leo & Son,5,1,"515 W Pender St #309, Vancouver, BC V6B 6H5, Canada",http://contoli.com/,"jewelry_store, store, point_of_interest, establishment",49.2836809,-123.1128499
Blue Ruby,3.5,16,"945 Park Royal S, West Vancouver, BC V7T 1A1, Canada",http://www.blueruby.com/,"jewelry_store, store, point_of_interest, establishment",49.325557,-123.1366607
Prestige Once Again Resale ,4.5,89,"1874 W 1st Ave #2, Vancouver, BC V6J 5B8, Canada",http://www.onceagainresale.com/,"clothing_store, jewelry_store, point_of_interest, store, establishment",49.2705676,-123.147182
Just Jewellery,4.8,44,"2970 King George Blvd, Surrey, BC V4P 0E5, Canada",http://www.justjewelleryinc.com/,"jewelry_store, store, point_of_interest, establishment",49.05621170000001,-122.8054369
On Time Service Corp.,4.2,49,"5489 Byrne Rd #252, Burnaby, BC V5J 3J1, Canada",http://ontimeservice.com/,"jewelry_store, finance, store, point_of_interest, establishment",49.2010083,-122.9860571
Astranova Jewellery,5,40,"525 Seymour St Suite 106, Vancouver, BC V6B 3H7, Canada",http://astranova.ca/,"jewelry_store, point_of_interest, store, establishment",49.28377450000001,-123.1146751
Trio Diamond & Gold Jewellery,4.7,61,"Park & Tilford Shopping Centre, 333 Brooksbank Ave #310, North Vancouver, BC V7J 3V8, Canada",http://www.triodg.com/,"jewelry_store, point_of_interest, store, establishment",49.3101379,-123.042443
,,,,,,,
Surrey Gold Buyers,4.9,91,"10362 King George Blvd #120, Surrey, BC V3T 2W5, Canada",https://canadagold.ca/locations/surrey/,"jewelry_store, finance, point_of_interest, store, establishment",49.1907685,-122.8441493
Michael Hill Lougheed Jewelry Store,3.7,83,"129B, Lougheed Town Centre, 9855 Austin Rd, Burnaby, BC V3J 1N4, Canada",https://www.michaelhill.ca/?utm_source=google&utm_medium=organic&utm_campaign=Google%20My%20Business&utm_content=Michael%20Hill%20Lougheed%20Jewelry%20Store%20-%20Burnaby&utm_term=plcid_5062635018143801008,"jewelry_store, point_of_interest, store, establishment",49.2502266,-122.8958023
Geomania Vancouver,4.6,95,"1250 Robson St, Vancouver, BC V6E 1C1, Canada",http://www.geomania-vancouver.com/,"jewelry_store, store, point_of_interest, establishment",49.2864753,-123.1279512
Gold Star Jewellers,4.6,62,"7107 120 St, Delta, BC V4E 2A9, Canada",https://www.goldstarjewellers.com/,"jewelry_store, finance, point_of_interest, store, establishment",49.1313971,-122.8922985
,,,,,,,
Mountain Gems Ltd,4.6,93,"4611 Hastings St, Burnaby, BC V5C 2K6, Canada",https://www.mountaingems.com/,"jewelry_store, point_of_interest, store, establishment",49.2811391,-122.999677
Jade World Trading,2,3,"1868 Glen Dr #128, Vancouver, BC V6A 4K4, Canada",http://jadeworldtrading.com/,"jewelry_store, point_of_interest, store, establishment",49.26863820000001,-123.0807413
Ben Moss Jewellers,4,71,"2929 Barnet Hwy #2214, Coquitlam, BC V3B 5R5, Canada",https://www.benmoss.com/,"jewelry_store, point_of_interest, store, establishment",49.27902310000001,-122.7983092
Canadian Diamonds Wholesale,5,66,"736 Granville St #120, Vancouver, BC V6Z 1G3, Canada",http://www.canadian-diamonds-wholesale.com/,"jewelry_store, point_of_interest, store, establishment",49.2818725,-123.1185424
Claire's,3.8,166,"10355 152 St #1070, Surrey, BC V3R 7C3, Canada",https://stores.claires.com/bc/surrey/2546.html,"jewelry_store, point_of_interest, store, establishment",49.18915510000001,-122.8041388
Claire's,3.4,126,"4700 Kingsway, Burnaby, BC V5H 4M1, Canada",https://stores.claires.com/bc/burnaby/2504.html,"jewelry_store, point_of_interest, store, establishment",49.2263573,-123.0004532
,,,,,,,
Parisian Lady custom design & fit boutique,4.6,26,"21051 Dewdney Trunk Rd, Maple Ridge, BC V2X 3G1, Canada",http://www.parisianladydesigns.com/,"clothing_store, jewelry_store, point_of_interest, store, establishment",49.2208902,-122.6379629
Michael Hill Richmond Centre Jewelry Store,3.7,75,"6551 Number 3 Rd #1566B, Richmond, BC V6Y 2C1, Canada",https://www.michaelhill.ca/?utm_source=google&utm_medium=organic&utm_campaign=Google%20My%20Business&utm_content=Michael%20Hill%20Richmond%20Centre%20Jewelry%20Store&utm_term=plcid_10390957815510958510,"jewelry_store, point_of_interest, store, establishment",49.1630554,-123.1398739
H-Mart Downtown,3.6,502,"590 Robson St #200, Vancouver, BC V6B 1L7, Canada",http://www.hmart.ca/,"grocery_or_supermarket, supermarket, convenience_store, florist, jewelry_store, store, food, point_of_interest, establishment",49.28049470000001,-123.1188965
Michael Hill Metrotown Centre Jewelry Store,3.6,152,"4800 Kingsway Suite 314, Burnaby, BC V5H 4J2, Canada",https://www.michaelhill.ca/?utm_source=google&utm_medium=organic&utm_campaign=Google%20My%20Business&utm_content=Michael%20Hill%20Metrotown%20Centre%20Jewelry%20Store%20-%20Burnaby&utm_term=plcid_5104699026427348726,"jewelry_store, store, point_of_interest, establishment",49.2260732,-122.9988893
Elsa Corsi,4,1,"1090A Hornby St, Vancouver, BC V6Z 2S1, Canada",http://www.elsacorsi.com/,"jewelry_store, point_of_interest, store, establishment",49.27955009999999,-123.1262479
Beckwoman's Hippie Emporium,3.2,39,"2522 E Hastings St, Vancouver, BC V5K 1Z2, Canada",,"store, art_gallery, jewelry_store, clothing_store, point_of_interest, establishment",49.281029,-123.0537945
Stittgen Fine Jewelry,5,26,"1457 Bellevue Ave, West Vancouver, BC V7T 1C3, Canada",http://www.stittgen.com/,"jewelry_store, point_of_interest, store, establishment",49.3273999,-123.1559154
Satnam Jewellers,4.4,42,"161, 8120 128 St, Surrey, BC V3W 1R1, Canada",https://www.instagram.com/satnamjewellersinc/,"jewelry_store, point_of_interest, store, establishment",49.15035209999999,-122.8673228
Staples,3.6,751,"901 Seymour St, Vancouver, BC V6B 1E3, Canada",https://stores.staples.ca/bc/vancouver/office-supplies-ca-55.html,"electronics_store, furniture_store, home_goods_store, point_of_interest, store, establishment",49.2796098,-123.1209054
RONA Coquitlam (Austin),3.8,539,"425 Lebleu St, Coquitlam, BC V3K 6X4, Canada",https://www.rona.ca/en/store/british-columbia/coquitlam/rona-coquitlam-austin-61290?cm_mmc=organic_search-_-yext-_-gmb-_-website&utm_medium=organic_search&utm_source=yext&utm_campaign=gmb&utm_content=website,"furniture_store, home_goods_store, point_of_interest, store, establishment",49.2478924,-122.8666668
Staples,3.4,226,"2135 Allison Rd Unit 101, Vancouver, BC V6T 1T5, Canada",https://stores.staples.ca/bc/vancouver/office-supplies-ca-239.html,"electronics_store, furniture_store, home_goods_store, point_of_interest, store, establishment",49.26635599999999,-123.2425236
Staples,3.6,453,"1055 W Georgia St Unit 220, Vancouver, BC V6C 2R7, Canada",https://stores.staples.ca/bc/vancouver/office-supplies-ca-254.html,"electronics_store, furniture_store, home_goods_store, point_of_interest, store, establishment",49.2852127,-123.1203248
RONA Maple Ridge,4,857,"21213 Lougheed Hwy., Maple Ridge, BC V2X 2R4, Canada",https://www.rona.ca/en/store/british-columbia/maple-ridge/rona-maple-ridge-61190?cm_mmc=organic_search-_-yext-_-gmb-_-website&utm_medium=organic_search&utm_source=yext&utm_campaign=gmb&utm_content=website,"furniture_store, home_goods_store, store, point_of_interest, establishment",49.217821,-122.6336209
Staples,3.8,942,"1220 Seguin Dr, Coquitlam, BC V0M 1A1, Canada",https://stores.staples.ca/bc/coquitlam/office-supplies-ca-68.html,"electronics_store, furniture_store, home_goods_store, point_of_interest, store, establishment",49.23445309999999,-122.8586214
Staples,3.4,526,"1999 Marine Dr, North Vancouver, BC V7P 3G2, Canada",https://stores.staples.ca/bc/northvancouver/office-supplies-ca-56.html,"furniture_store, home_goods_store, electronics_store, point_of_interest, store, establishment",49.3236068,-123.121958
Paramount Home & Design,4.8,72,"3311 Sweden Wy, Richmond, BC V6V 2B1, Canada",http://www.paramounthome.ca/,"furniture_store, point_of_interest, home_goods_store, store, establishment",49.190529,-123.0833453
Staples,3.5,851,"4265 Lougheed Hwy., Burnaby, BC V5C 3Y6, Canada",https://stores.staples.ca/bc/burnaby/office-supplies-ca-84.html,"electronics_store, furniture_store, home_goods_store, store, point_of_interest, establishment",49.26702100000001,-123.0095063
,,,,,,,
PRO Office Service (B.C) Inc.,4.7,3,"Unit 110, 155 Glacier St, Coquitlam, BC V3K 5Z1, Canada",http://www.prooffice.ca/,"furniture_store, home_goods_store, store, point_of_interest, establishment",49.2356095,-122.8169384
,,,,,,,
Staples,3.6,555,"3003 Grandview Hwy Unit 1, Vancouver, BC V5M 2E4, Canada",https://stores.staples.ca/bc/vancouver/office-supplies-ca-428.html,"electronics_store, furniture_store, home_goods_store, point_of_interest, store, establishment",49.2586381,-123.0412039
CF INTERIORS - Designer & Trade Showroom,4.1,44,"1365 Pemberton Ave, North Vancouver, BC V7P 2R6, Canada",http://cfinteriors.ca/,"furniture_store, home_goods_store, store, point_of_interest, establishment",49.3208711,-123.1081479
Value Village,3.9,3359,"6925 King George Blvd, Surrey, BC V3W 2J5, Canada",https://stores.savers.com/bc/surrey/valuevillage-thrift-store-2113.html,"book_store, clothing_store, furniture_store, home_goods_store, store, point_of_interest, establishment",49.12865600000001,-122.8473202
The Home Depot,4,2030,"1069 Nicola Ave, Port Coquitlam, BC V3B 8B2, Canada",https://stores.homedepot.ca/bc/portcoquitlam/home-improvement-portcoquitlam-bc-7145.html?utm_source=google&utm_medium=organic&utm_campaign=local&utm_content=7145,"furniture_store, hardware_store, home_goods_store, point_of_interest, store, establishment",49.2575645,-122.7429885
Haworth,3,2,"380 W 2nd Ave 2nd Floor, Vancouver, BC V5Y 1C8, Canada",http://www.haworth.com/,"furniture_store, home_goods_store, store, point_of_interest, establishment",49.26775440000001,-123.111774
Walmart Supercentre,3.8,1873,"2150 Hawkins Street, Port Coquitlam, BC V3B 0G6, Canada",https://www.walmart.ca/en/stores-near-me/port-coquitlam-supercentre-1112?utm_source=local&utm_medium=listings&utm_campaign=sc&cmpid=gmb,"department_store, supermarket, electronics_store, grocery_or_supermarket, furniture_store, clothing_store, home_goods_store, store, food, point_of_interest, establishment",49.2542871,-122.7352215
Staples,4,517,"5821 Marine Way, Burnaby, BC V3N 2R2, Canada",https://stores.staples.ca/bc/burnaby/office-supplies-ca-326.html,"electronics_store, furniture_store, home_goods_store, point_of_interest, store, establishment",49.1978889,-122.9734799
Universal Supply Vancouver,4.2,37,"2835 E 12th Ave, Vancouver, BC V5M 4P9, Canada",https://universalsupply.bc.ca/find-us/,"hardware_store, furniture_store, home_goods_store, point_of_interest, store, establishment",49.25927439999999,-123.0468465
99 furniture Inc Bed & mattress online!,2.9,13,"9200 Van Horne Way, Richmond, BC V6X 1W2, Canada",,"furniture_store, home_goods_store, store, point_of_interest, establishment",49.1951377,-123.1224207
Value Village,3.8,2109,"8240 Granville Ave, Richmond, BC V6Y 1P3, Canada",https://stores.savers.com/bc/richmond/valuevillage-thrift-store-2098.html,"book_store, clothing_store, furniture_store, home_goods_store, point_of_interest, store, establishment",49.16204380000001,-123.1329911
Walmart Supercentre,3.4,1075,"12451 88 Ave, Surrey, BC V3V 1B9, Canada",https://www.walmart.ca/en/stores-near-me/surrey-west-supercentre-5838?utm_source=local&utm_medium=listings&utm_campaign=sc&cmpid=gmb,"department_store, supermarket, clothing_store, furniture_store, home_goods_store, grocery_or_supermarket, electronics_store, food, point_of_interest, store, establishment",49.1659333,-122.8779231
,,,,,,,
The Home Depot,4,1147,"840 Main St, West Vancouver, BC V7T 2Z3, Canada",https://stores.homedepot.ca/bc/westvancouver/home-improvement-westvancouver-bc-7035.html?utm_source=google&utm_medium=organic&utm_campaign=local&utm_content=7035,"hardware_store, furniture_store, point_of_interest, home_goods_store, store, establishment",49.3249296,-123.1408442
Staples,3.3,696,"8171 Ackroyd Rd Units 180 - 185, Richmond, BC V6X 3K1, Canada",https://stores.staples.ca/bc/richmond/office-supplies-ca-45.html,"electronics_store, furniture_store, home_goods_store, store, point_of_interest, establishment",49.1726642,-123.1344427
The Home Depot,4,387,"39251 Discovery Way, Squamish, BC V8B 0M9, Canada",https://stores.homedepot.ca/bc/squamish/home-improvement-squamish-bc-7053.html?utm_source=google&utm_medium=organic&utm_campaign=local&utm_content=7053,"hardware_store, furniture_store, home_goods_store, store, point_of_interest, establishment",49.7216781,-123.152012
RONA Coquitlam,4,924,"2798 Barnet Hwy, Coquitlam, BC V3B 1B9, Canada",https://www.rona.ca/en/store/british-columbia/coquitlam/rona-coquitlam-61260?cm_mmc=organic_search-_-yext-_-gmb-_-website&utm_medium=organic_search&utm_source=yext&utm_campaign=gmb&utm_content=website,"furniture_store, home_goods_store, store, point_of_interest, establishment",49.2760686,-122.8023675
Best Buy,3.7,887,"8133 Ontario St, Vancouver, BC V5X 0A7, Canada",https://stores.bestbuy.ca/en-ca/bc/vancouver/8133-ontario-st,"electronics_store, home_goods_store, point_of_interest, store, establishment",49.21141739999999,-123.1074496
Best Buy,3.5,1477,"12048 80 Ave, Surrey, BC V3W 3M1, Canada",https://stores.bestbuy.ca/en-ca/bc/surrey/12048-80th-ave,"electronics_store, home_goods_store, point_of_interest, store, establishment",49.147769,-122.8886284
London Drugs,3.7,355,"555 6th St, New Westminster, BC V3L 5H1, Canada",https://www.londondrugs.com/london-drugs-store-003-new-westminster/westminster-centre-003.html?utm_source=GMB&utm_medium=Yext,"pharmacy, electronics_store, grocery_or_supermarket, home_goods_store, food, point_of_interest, store, health, establishment",49.21272399999999,-122.9193657
Canadian Tire,3.7,2636,"1200 Seguin Dr, Coquitlam, BC V3K 6W8, Canada",https://www.canadiantire.ca/en/store-details/bc/coquitlam-bc-608.html?utm_source=google&utm_medium=lss&utm_content=608,"department_store, car_repair, park, food, point_of_interest, home_goods_store, store, establishment",49.2351802,-122.860362
Better Bathrooms Coquitlam,4.8,9,"Unit 102, 94 Glacier St, Coquitlam, BC V3K 6B2, Canada",https://coquitlam.betterbathrooms.ca/,"point_of_interest, home_goods_store, store, establishment",49.2323111,-122.8180556
Best Buy,3.4,713,"2267 160 St, Surrey, BC V3Z 9N6, Canada",https://stores.bestbuy.ca/en-ca/bc/surrey/2267-160th-st,"electronics_store, home_goods_store, point_of_interest, store, establishment",49.04312149999999,-122.7808314
Hewer Home Hardware,4.2,83,"4459 W 10th Ave, Vancouver, BC V6R 2H8, Canada",https://www.homehardware.ca/en/store/56467?utm_source=google&utm_medium=organic_search&utm_campaign=local_seo&utm_content=56467,"hardware_store, locksmith, home_goods_store, store, point_of_interest, establishment",49.2640375,-123.2079231
RONA North Vancouver,3.4,337,"915 W 1st St, North Vancouver, BC V7P 1A4, Canada",https://www.rona.ca/en/store/british-columbia/north-vancouver/rona-north-vancouver-08140?cm_mmc=organic_search-_-yext-_-gmb-_-website&utm_medium=organic_search&utm_source=yext&utm_campaign=gmb&utm_content=website,"furniture_store, hardware_store, home_goods_store, point_of_interest, store, establishment",49.31783309999999,-123.0992005
Grainger Industrial Supply,3,77,"2475 Douglas Rd, Burnaby, BC V5C 5A9, Canada",https://www.grainger.ca/en/store/AV5,"hardware_store, store, point_of_interest, establishment",49.2622988,-122.9878113
Steveston Marine & Hardware,3,237,"1667 W 5th Ave, Vancouver, BC V6J 1N5, Canada",https://www.stevestonmarine.com/,"hardware_store, store, point_of_interest, establishment",49.2673142,-123.1425179
Windsor Plywood,4,119,"1098 SW Marine Dr, Vancouver, BC V6P 5Z3, Canada",https://www.windsorplywood.com/location/vancouver/,"hardware_store, home_goods_store, general_contractor, store, point_of_interest, establishment",49.2039146,-123.1314086
Dunbar Lumber Paint Center,4.7,7,"2930 Arbutus St, Vancouver, BC V6J 3Y9, Canada",http://dunbarlumber.com/,"hardware_store, home_goods_store, point_of_interest, store, establishment",49.2597979,-123.1527661
Universal Supply Langley,4.8,23,"19545 56 Ave #104, Surrey, BC V3S 6K3, Canada",https://universalsupply.bc.ca/find-us/,"furniture_store, hardware_store, home_goods_store, point_of_interest, store, establishment",49.1047222,-122.6813227
Able Tool Rentals,4.1,35,"4311 Buchanan St, Burnaby, BC V5C 3X7, Canada",http://www.abletools.ca/,"hardware_store, store, point_of_interest, establishment",49.26775629999999,-123.0085336
Universal Supply Richmond,4.9,8,"8791 Beckwith Rd, Richmond, BC V6X 1V4, Canada",,"hardware_store, furniture_store, point_of_interest, home_goods_store, store, establishment",49.194123,-123.1276047
Latch's Specialty Hardware Ltd,4.7,10,"we are in Jim's door building #5 road, 2660 No 5 Rd #201, Richmond, BC V6X 2T3, Canada",,"hardware_store, point_of_interest, store, establishment",49.1931984,-123.0908802
Lyncar Products Ltd,5,1,"1546 Derwent Wy, Delta, BC V3M 6M4, Canada",http://www.lyncar.com/,"hardware_store, point_of_interest, store, establishment",49.1616554,-122.9630023
Kitply Industries,4.3,14,"13550 77 Ave Unit 10, Surrey, BC V3W 6Y3, Canada",https://www.kitply.ca/,"hardware_store, general_contractor, furniture_store, point_of_interest, home_goods_store, store, establishment",49.1421508,-122.8480452
Bowen Building Centre,4.6,58,"1013 Grafton Rd, Bowen Island, BC V0N 1G2, Canada",http://www.bbcbowen.com/,"hardware_store, point_of_interest, store, establishment",49.36646940000001,-123.3749443
K T Products,3.7,3,"85 Glacier St, Coquitlam, BC V3K 5Z1, Canada",http://www.ktproducts.com/,"hardware_store, point_of_interest, store, establishment",49.231441,-122.8168182
Star Light Locks Ltd,3.8,12,"12811 Rowan Pl, Richmond, BC V6V 2S6, Canada",https://www.starlightlocks.com/,"hardware_store, store, point_of_interest, establishment",49.187543,-123.0839014
Butler Marketing Ltd.,5,5,"11771 Horseshoe Way #6, Richmond, BC V7A 4V4, Canada",http://butlermarketing.ca/,"hardware_store, point_of_interest, store, establishment",49.1269715,-123.0963986
Sharp Source Inc.,,,"949 3rd St W, North Vancouver, BC V7T 2J2, Canada",http://www.sharpsource.ca/,"hardware_store, store, point_of_interest, establishment",49.3196563,-123.1001918
Global Links Products Of Canada Ltd,,,"1595 Cliveden Ave Unit 8, Delta, BC V3M 6M2, Canada",https://globallinks.ca/,"storage, hardware_store, point_of_interest, store, establishment",49.1645491,-122.9704214
HTA Products Inc.,4,23,"1799 Kingsway, Vancouver, BC V5N 2S5, Canada",http://www.htabaths.com/,"furniture_store, hardware_store, home_goods_store, point_of_interest, store, establishment",49.24671,-123.0680197
,,,,,,,
Steveston Marine and Hardware,3.5,109,"8331 River Rd, Richmond, BC V6X 1Y1, Canada",https://www.stevestonmarine.com/,"hardware_store, home_goods_store, point_of_interest, store, establishment",49.1918829,-123.1340354
Richelieu,3,80,"12851 Rowan Pl #100, Richmond, BC V6V 2S6, Canada",https://www.richelieu.com/,"hardware_store, furniture_store, point_of_interest, home_goods_store, store, establishment",49.18767,-123.0826151
,,,,,,,
RONA Richmond,3.8,564,"7111 Elmbridge Way, Richmond, BC V6X 3J7, Canada",https://www.rona.ca/en/store/08040,"hardware_store, furniture_store, point_of_interest, home_goods_store, store, establishment",49.172705,-123.1456246
CHS Hardware Ltd.,4,4,"7868 Venture St, Burnaby, BC V5A 1V3, Canada",https://chshardware.ca/,"hardware_store, point_of_interest, store, establishment",49.2574796,-122.9358064
Stella Custom Glass Hardware Inc,4.6,5,"8218 N Fraser Wy #105, Burnaby, BC V3N 0E9, Canada",http://stellaglasshardware.com/,"hardware_store, store, point_of_interest, establishment",49.19219760000001,-122.975132
,,,,,,,
APA Vancouver,5,3,"2388 Canoe Ave #103, Coquitlam, BC V3K 6C2, Canada",http://www.apainc.ca/,"hardware_store, point_of_interest, store, establishment",49.22916619999999,-122.8238275
Euro-Star Distributors ltd,5,2,"8136 130 St #104, Surrey, BC V3W 8J9, Canada",http://eurostardistributor.com/,"hardware_store, general_contractor, furniture_store, home_goods_store, point_of_interest, store, establishment",49.15117739999999,-122.8613753
RONA Tsawwassen Commons,4,181,"4949 Canoe Pass Wy #100, Tsawwassen, BC V4M 0B2, Canada",https://www.rona.ca/en/store/british-columbia/tsawwassen/rona-tsawwassen-commons-08880?cm_mmc=organic_search-_-yext-_-gmb-_-website&utm_medium=organic_search&utm_source=yext&utm_campaign=gmb&utm_content=website,"hardware_store, furniture_store, point_of_interest, home_goods_store, store, establishment",49.0425658,-123.0894001
Timber Mart,4.5,8,"17444 56 Ave, Surrey, BC V3S 1C3, Canada",https://timbermart.ca/en/stores/southridge-building-supplies-ltd/,"hardware_store, store, point_of_interest, establishment",49.1036345,-122.7395247
Home Hardware Cloverdale-Surrey,4.3,72,"17700 56 Ave #101, Surrey, BC V3S 1C7, Canada",http://www.homehardware.ca/,"hardware_store, locksmith, laundry, home_goods_store, food, point_of_interest, store, establishment",49.1037853,-122.7329067
BC Fasteners & Tools 2000 Ltd.,4,35,"5035 Still Creek Ave, Burnaby, BC V5C 5V1, Canada",http://www.blackcrowfasteners.com/,"hardware_store, home_goods_store, point_of_interest, store, establishment",49.26121129999999,-122.9902572
Apple Pacific Centre,3.7,2147,"701 W Georgia St, Vancouver, BC V7Y 1G5, Canada",https://www.apple.com/ca/retail/pacificcentre?cid=aos-ca-seo-maps,"electronics_store, store, point_of_interest, establishment",49.2831801,-123.1187066
Apple Richmond Centre,3.5,1259,"6551 Number 3 Rd, Richmond, BC V6Y 2B6, Canada",https://www.apple.com/ca/retail/richmondcentre?cid=aos-ca-seo-maps,"electronics_store, store, point_of_interest, establishment",49.1657546,-123.1384803
Apple Metrotown,3.5,2108,"4700 Kingsway Unit 320, Burnaby, BC V5H 4J2, Canada",https://www.apple.com/ca/retail/metrotown?cid=aos-ca-seo-maps,"electronics_store, point_of_interest, store, establishment",49.22627639999999,-122.9992932
Generic Technology Ltd.,4.6,47,"11180 Bridgeport Rd #130, Richmond, BC V6X 1T2, Canada",http://www.genericcomputer.com/,"electronics_store, point_of_interest, store, establishment",49.1917123,-123.1003358
Best Buy Canadian Headquarters,2.4,326,"425 W 6th Ave Suite #102, Vancouver, BC V5Y 1L3, Canada",https://www.bestbuy.ca/,"electronics_store, store, point_of_interest, establishment",49.265868,-123.1135521
ATIC Computers,3.7,83,"120 W Broadway, Vancouver, BC V5Y 1P3, Canada",http://www.atic.ca/,"electronics_store, point_of_interest, store, establishment",49.2628445,-123.1075186
Best Buy,3.4,1255,"20202 66 Ave Unit F3, Langley, BC V2Y 2X4, Canada",https://stores.bestbuy.ca/en-ca/bc/langley/20202-66th-ave-unit-f3,"electronics_store, home_goods_store, point_of_interest, store, establishment",49.12203880000001,-122.6642062
Best Buy,3.5,1232,"5300 Number 3 Rd Unit 700, Richmond, BC V6X 2X9, Canada",https://stores.bestbuy.ca/en-ca/bc/richmond/5300-no-3-rd-unit-700,"electronics_store, home_goods_store, store, point_of_interest, establishment",49.1749141,-123.1340304
The Sound Room,4.6,73,"2578 Burrard St, Vancouver, BC V6J 3J7, Canada",http://www.soundroom.ca/,"electronics_store, home_goods_store, point_of_interest, store, establishment",49.2630243,-123.1455609
London Drugs,3.6,240,"2696 E Hastings St, Vancouver, BC V5K 1Z1, Canada",https://www.londondrugs.com/london-drugs-store-007-vancouver/east-hastings-007.html?utm_source=GMB&utm_medium=Yext,"pharmacy, grocery_or_supermarket, electronics_store, health, food, point_of_interest, home_goods_store, store, establishment",49.280994,-123.0496208
Apple Coquitlam Centre,3.4,1123,"2929 Barnet Hwy, Coquitlam, BC V3B 5R5, Canada",https://www.apple.com/ca/retail/coquitlamcentre?cid=aos-ca-seo-maps,"electronics_store, point_of_interest, store, establishment",49.27957199999999,-122.7987786
London Drugs,3.5,534,"5639 Victoria Dr, Vancouver, BC V5P 3W2, Canada",https://www.londondrugs.com/london-drugs-store-053-vancouver/41st-victoria-053.html?utm_source=extnet&utm_medium=Yext?utm_source=GMB&utm_medium=Yext,"pharmacy, electronics_store, grocery_or_supermarket, home_goods_store, store, health, food, point_of_interest, establishment",49.2332581,-123.0665659
PureImage Technology,5,32,"1251 Homer St, Vancouver, BC V6B 2Y9, Canada",https://pureimage.ca/,"electronics_store, home_goods_store, point_of_interest, store, establishment",49.27466099999999,-123.124423
London Drugs,3.8,356,"4970 Kingsway, Burnaby, BC V5H 2E2, Canada",https://www.londondrugs.com/london-drugs-store-006-burnaby/kingsway-plaza-006.html?utm_source=GMB&utm_medium=Yext,"pharmacy, electronics_store, grocery_or_supermarket, home_goods_store, food, point_of_interest, health, store, establishment",49.22583830000001,-122.9932616
Showcase,3.4,143,"Metropolis at Metrotown, 4820 Kingsway, Burnaby, BC V5H 4N2, Canada",https://ca.shopatshowcase.com/?utm_source=google&utm_medium=gbp&utm_campaign=gbpwebsite,"home_goods_store, electronics_store, point_of_interest, store, establishment",49.2255059,-122.9966377
Staples,3.9,831,"20055 Willowbrook Dr Unit 200, Langley, BC V2Y 2T5, Canada",https://stores.staples.ca/bc/langleycity/office-supplies-ca-93.html,"electronics_store, furniture_store, point_of_interest, home_goods_store, store, establishment",49.1167417,-122.666199
Walmart Supercentre,3.6,3640,"3585 Grandview Hwy, Vancouver, BC V5M 2G7, Canada",https://www.walmart.ca/en/stores-near-me/grandview-supercentre-1104?utm_source=local&utm_medium=listings&utm_campaign=sc&cmpid=gmb,"department_store, supermarket, grocery_or_supermarket, electronics_store, clothing_store, furniture_store, food, point_of_interest, home_goods_store, store, establishment",49.2592375,-123.0270661
Best Buy,3.4,1156,"2100 Park Royal S, West Vancouver, BC V7T 2W4, Canada",https://stores.bestbuy.ca/en-ca/bc/west-vancouver/2100-park-royal-s,"electronics_store, home_goods_store, store, point_of_interest, establishment",49.32451709999999,-123.13656
London Drugs,3.5,273,"1650 Davie St, Vancouver, BC V6G 1V9, Canada",https://www.londondrugs.com/london-drugs-store-050-vancouver/davie-street-050.html?utm_source=GMB&utm_medium=Yext,"pharmacy, home_goods_store, grocery_or_supermarket, electronics_store, food, point_of_interest, store, health, establishment",49.28541080000001,-123.1394856
Focus Audio Visual Services Ltd.,3.3,4,"1590 Rand Ave, Vancouver, BC V6P 3G2, Canada",http://focus-av.com/,"electronics_store, home_goods_store, store, point_of_interest, establishment",49.20625190000001,-123.1435964
TELUS,3.3,189,"2695 Guildford Town Centre Unit 1150, Surrey, BC V3R 7B9, Canada",https://stores.telus.com/en/bc-surrey-11278140?utm_source=GPB&utm_medium=Listing&utm_campaign=Local-Listings,"electronics_store, point_of_interest, store, establishment",49.1896613,-122.8033251
Rosellen Suites At Stanley Park,4,285,"2030 Barclay St, Vancouver, BC V6G 1L5, Canada",http://www.rosellensuites.com/,"lodging, point_of_interest, establishment",49.29216890000001,-123.1411496
The Cambie Hostel - Gastown,3.6,1285,"310 Cambie St, Vancouver, BC V6B 2N3, Canada",http://cambiehostels.com/,"lodging, point_of_interest, establishment",49.2831306,-123.1091
English Bay Hotel,3.6,560,"1150 Denman St, Vancouver, BC V6G 2M9, Canada",http://englishbayhotel.com/bluehost-ebh/index.html,"lodging, point_of_interest, establishment",49.2878045,-123.1407778
Tropicana Suite Hotel,3.4,268,"1361 Robson St, Vancouver, BC V6E 1C6, Canada",http://pavillonimperial.com/,"lodging, point_of_interest, establishment",49.2877817,-123.1291655
Patricia Hotel - SRO,2.8,1152,"403 E Hastings St, Vancouver, BC V6A 1P6, Canada",,"lodging, point_of_interest, establishment",49.28153,-123.0950303
Nesters Market,3.9,837,"990 Seymour St, Vancouver, BC V6B 3L9, Canada",http://www.nestersmarket.com/,"supermarket, grocery_or_supermarket, food, point_of_interest, store, establishment",49.2786382,-123.1215649
Buy-Low Foods,4,587,"5901 Broadway, Burnaby, BC V5B 2Y1, Canada",http://www.buy-lowfoods.com/,"supermarket, grocery_or_supermarket, food, point_of_interest, store, establishment",49.26533999999999,-122.9778463
Nesters Market,3.9,488,"4475 Main St, Vancouver, BC V5V 3R2, Canada",http://www.nestersmarket.com/,"supermarket, grocery_or_supermarket, food, point_of_interest, store, establishment",49.24494379999999,-123.1015851
T&T Supermarket First Avenue Store,4,2400,"2800 E 1st Ave #100, Vancouver, BC V5M 4N8, Canada",https://www.tntsupermarket.com/,"supermarket, grocery_or_supermarket, food, point_of_interest, store, establishment",49.2689867,-123.046486
M&M Food Market,4.2,67,"4639 Arbutus St, Vancouver, BC V6J 4A3, Canada",https://mmfoodmarket.com/store_locations/354?utm_source=google&utm_medium=organic&utm_campaign=gmb-listing,"grocery_or_supermarket, supermarket, restaurant, bakery, store, food, point_of_interest, establishment",49.2446666,-123.1539987
Dean's NOFRILLS Vancouver,4,2066,"4508 Fraser St, Vancouver, BC V5V 4G7, Canada",https://www.nofrills.ca/store-locator/details/3410?utm_source=G&utm_medium=LPM&utm_campaign=Loblaws,"grocery_or_supermarket, supermarket, bakery, food, point_of_interest, store, establishment",49.244543,-123.08977
Quest Non-Profit Grocery Markets,3.7,89,"2020 Dundas St, Vancouver, BC V5L 1J4, Canada",http://www.questoutreach.org/,"supermarket, grocery_or_supermarket, store, food, point_of_interest, establishment",49.2845896,-123.0627657
Buy-Low Foods,3.9,614,"6095 Fraser St, Vancouver, BC V5W 2Z8, Canada",https://www.buy-low.com/,"supermarket, grocery_or_supermarket, point_of_interest, store, food, establishment",49.2293459,-123.0909933
Lion & Sun Market,4,122,"927 Seymour St, Vancouver, BC V6B 3M1, Canada",,"supermarket, grocery_or_supermarket, store, food, point_of_interest, establishment",49.27924340000001,-123.1214089
Real Canadian Superstore 120 Street,4,3601,"8195 120 St, Delta, BC V4C 2C6, Canada",https://www.realcanadiansuperstore.ca/store-locator/details/1554?utm_source=G&utm_medium=LPM&utm_campaign=Loblaws,"grocery_or_supermarket, supermarket, bakery, food, point_of_interest, store, health, establishment",49.15172,-122.89178
Buy-Low Foods,4,600,"7641 Royal Oak Ave, Burnaby, BC V5J 4K3, Canada",http://www.buy-low.com/,"supermarket, grocery_or_supermarket, store, food, point_of_interest, establishment",49.2144467,-122.9889453
T&T Supermarket Inc. West Region Office,3.6,45,"6311 Fraserwood Pl, Richmond, BC V6W 1J2, Canada",https://www.tntsupermarket.com/,"supermarket, grocery_or_supermarket, food, point_of_interest, store, establishment",49.168098,-122.9849519
Nesters Market,3.8,948,"333 Abbott St, Vancouver, BC V6B 0G9, Canada",http://www.nestersmarket.com/,"supermarket, grocery_or_supermarket, store, food, point_of_interest, establishment",49.2825985,-123.1071227
IGA Market Blaine,3.7,683,"1733 H St #100, Blaine, WA 98230, USA",https://igamarkets.com/,"supermarket, grocery_or_supermarket, food, point_of_interest, store, establishment",48.993075,-122.7292087
Urban Gate,3.8,1530,"1158 The High St #104, Coquitlam, BC V3B 0C6, Canada",https://urbangate.ca/,"convenience_store, cafe, meal_takeaway, supermarket, grocery_or_supermarket, bakery, store, restaurant, food, point_of_interest, establishment",49.2820246,-122.7963475
Nesters Market,3.9,273,"9000 University High St, Burnaby, BC V5A 4X6, Canada",http://www.nestersmarket.com/,"supermarket, pharmacy, grocery_or_supermarket, food, point_of_interest, health, store, establishment",49.2777953,-122.9098788
M&M Food Market,3.8,59,"15277 100 Ave, Surrey, BC V3R 8X2, Canada",https://mmfoodmarket.com/store_locations/253?utm_source=google&utm_medium=organic&utm_campaign=gmb-listing,"grocery_or_supermarket, supermarket, bakery, store, restaurant, food, point_of_interest, establishment",49.1847746,-122.7986743
IGA,4,1985,"909 Burrard St, Vancouver, BC V6Z 2N2, Canada",https://www.igastoresbc.com/find-a-store/vancouver-burrard-st-iga,"supermarket, grocery_or_supermarket, food, point_of_interest, store, establishment",49.2821931,-123.1249163
M&M Food Market,4.1,45,"11161 84 Ave #5, Delta, BC V4C 2K4, Canada",https://mmfoodmarket.com/store_locations/306?utm_source=google&utm_medium=organic&utm_campaign=gmb-listing,"grocery_or_supermarket, bakery, supermarket, restaurant, food, point_of_interest, store, establishment",49.1563714,-122.9137376
Caribbean Market,4,126,"804 12th St, New Westminster, BC V3M 4K1, Canada",http://www.caribbeanmarket.ca/,"grocery_or_supermarket, supermarket, food, point_of_interest, store, establishment",49.210652,-122.9346041
New Pacific Supermarket,3.6,355,"1163 Pinetree Wy, Coquitlam, BC V3B 8A9, Canada",https://newpacificsupermarket.com/weekly-specials/,"supermarket, grocery_or_supermarket, food, point_of_interest, store, establishment",49.2795679,-122.7920461
Greenway Supermarket Inc,3.9,45,"8148 128 St, Surrey, BC V3W 1R1, Canada",http://greenwaysupermarket.com/,"supermarket, grocery_or_supermarket, food, point_of_interest, store, establishment",49.15020759999999,-122.8646243
Rexall,2.4,131,"88 W Pender St #1173, Vancouver, BC V6B 6N9, Canada",https://www.rexall.ca/storelocator/store/7182?utm_source=G&utm_medium=LPM&utm_campaign=RexallPharmaPlus,"drugstore, convenience_store, pharmacy, food, point_of_interest, health, store, establishment",49.27981399999999,-123.10674
Rexall,3.8,30,"1055 W Georgia St #122, Vancouver, BC V6E 3R5, Canada",https://www.rexall.ca/storelocator/store/7149?utm_source=G&utm_medium=LPM&utm_campaign=RexallPharmaPlus,"drugstore, convenience_store, pharmacy, food, point_of_interest, store, health, establishment",49.285307,-123.121588
Campbell River Store,4,34,"790 176 St, Surrey, BC V3S 9S6, Canada",,"gas_station, convenience_store, point_of_interest, store, food, establishment",49.01621489999999,-122.7345717
CITY SQUARE HYE PARK EXPRESS,3.9,18,"555 W 12th Ave #15, Vancouver, BC V5Z 3X7, Canada",https://citysquarevan.com/mall-directory/hye-park-express/,"convenience_store, store, food, point_of_interest, establishment",49.26105769999999,-123.1159912
7-Eleven,3.3,126,"596 Seymour Street & Dunsmuir, Vancouver, BC V6B 3J5, Canada",https://stores.7-eleven.ca/store/32999,"convenience_store, food, point_of_interest, store, establishment",49.28296950000001,-123.1150997
7-Eleven,2.5,59,"21243 Lougheed Hwy & Laity, Maple Ridge, BC V2X 2R4, Canada",https://stores.7-eleven.ca/store/29401,"convenience_store, gas_station, food, point_of_interest, store, establishment",49.2175166,-122.6324329
Rexall,3,61,"15966 108 Ave Unit 107 & 108, Surrey, BC V4N 5V6, Canada",https://www.rexall.ca/storelocator/store/7152?utm_source=G&utm_medium=LPM&utm_campaign=RexallPharmaPlus,"drugstore, convenience_store, pharmacy, health, store, food, point_of_interest, establishment",49.198288,-122.779998
Chevron - Gas Station,3.4,52,"3030 Boundary Rd, Burnaby, BC V5M 4A1, Canada",https://www.chevron.parkland.ca/retail/locations/?utm_source=G&utm_medium=lpm&utm_campaign=parkland,"gas_station, convenience_store, food, point_of_interest, store, establishment",49.2567433,-123.0231038
Chevron - Gas Station,3.1,60,"1720 Rupert St, Vancouver, BC V5M 3S3, Canada",https://www.chevron.parkland.ca/retail/locations/?utm_source=G&utm_medium=lpm&utm_campaign=parkland,"gas_station, convenience_store, store, food, point_of_interest, establishment",49.2691712,-123.0331981
,,,,,,,
Dik's Market House,3.5,80,"2918 Glen Dr #100, Coquitlam, BC V3B 2P5, Canada",,"convenience_store, cafe, locksmith, grocery_or_supermarket, finance, point_of_interest, store, food, establishment",49.282478,-122.7998299
Manila BBQ SuperMart,4.4,76,"615 12th St, New Westminster, BC V3M 2E6, Canada",http://manilabbq.ca/,"grocery_or_supermarket, convenience_store, finance, car_repair, food, point_of_interest, store, establishment",49.20823040000001,-122.9309643
Chevron - Gas Station,3.2,32,"2706 St Johns St, Port Moody, BC V3H 2B7, Canada",https://www.chevron.parkland.ca/retail/locations/?utm_source=G&utm_medium=lpm&utm_campaign=parkland,"gas_station, convenience_store, food, point_of_interest, store, establishment",49.27700959999999,-122.8519174
Chevron - Gas Station,3,44,"1720 Nanaimo St, Vancouver, BC V5N 5B9, Canada",https://www.chevron.parkland.ca/retail/locations/?utm_source=G&utm_medium=lpm&utm_campaign=parkland,"gas_station, convenience_store, point_of_interest, store, food, establishment",49.26913339999999,-123.0561956
Chevron - Gas Station,3.8,40,"3662 Mt Seymour Pkwy #140, North Vancouver, BC V7H 2Y5, Canada",https://www.chevron.parkland.ca/retail/locations/?utm_source=G&utm_medium=lpm&utm_campaign=parkland,"gas_station, convenience_store, store, food, point_of_interest, establishment",49.31622,-122.970433
Petro-Canada,3.6,51,"6389 120 St, Delta, BC V4E 2A6, Canada",https://www.petro-canada.ca/en/personal/gas-station-locations/6389--120-st-delta?utm_source=G&utm_medium=lpm&utm_campaign=suncor,"gas_station, convenience_store, food, point_of_interest, store, establishment",49.119008,-122.89064
Express News & Smokes,4,15,"Tandem 3, 4190 Dawson St, Burnaby, BC V5C 0A2, Canada",https://www.expressnewsconvenience.ca/,"convenience_store, store, food, point_of_interest, establishment",49.26432690000001,-123.0119197
Petro-Canada,3.7,125,"1401 Johnson St, Coquitlam, BC V3E 3J3, Canada",https://www.petro-canada.ca/en/personal/gas-station-locations/1401-johnson-street-coquitlam?utm_source=G&utm_medium=lpm&utm_campaign=suncor,"gas_station, convenience_store, point_of_interest, store, food, establishment",49.296283,-122.80138
Chevron - Gas Station,3.1,46,"1695 Como Lake Ave, Coquitlam, BC V3J 3P7, Canada",https://www.chevron.parkland.ca/retail/locations/?utm_source=G&utm_medium=lpm&utm_campaign=parkland,"gas_station, convenience_store, food, point_of_interest, store, establishment",49.2636482,-122.8469425
J&J Market,3.8,25,"1319 Robson St, Vancouver, BC V6E 1C6, Canada",https://jjmarketflower.ca/,"convenience_store, food, point_of_interest, store, establishment",49.2873261,-123.1286942
H&Z MARKET,4.6,72,"3150 Main St, Vancouver, BC V5T 3G7, Canada",,"convenience_store, point_of_interest, store, food, establishment",49.2567094,-123.1009634
Silver Moon Smoke/Vape Shop & Exotics Emporium,4.5,33,"8603 120 St, Delta, BC V4C 6R4, Canada",https://www.puffingthesilvermoon.com/,"convenience_store, point_of_interest, store, food, establishment",49.1597294,-122.8908132
Queensbury Market,3.8,42,"711 Queensbury Ave, North Vancouver, BC V7L 3V9, Canada",,"convenience_store, meal_takeaway, store, restaurant, food, point_of_interest, establishment",49.31283759999999,-123.0573352
Express News & Smokes,3,49,"2201 Holdom Ave, Burnaby, BC V5B 0A2, Canada",https://www.expressnewsconvenience.ca/,"convenience_store, food, point_of_interest, store, establishment",49.2643599,-122.9817226
7-Eleven,2.3,94,"9583 132 St, Surrey, BC V3V 5R2, Canada",https://stores.7-eleven.ca/store/36676,"convenience_store, food, point_of_interest, store, establishment",49.1767993,-122.8572991
Co-op Ladner Gas Bar,3.2,32,"6420 Ladner Trunk Rd, Delta, BC V4K 3N3, Canada",http://www.otterco-op.crs/,"gas_station, car_wash, convenience_store, food, point_of_interest, store, establishment",49.0898913,-123.0457928
On The Run - Convenience Store,2.8,4,"2620 Mt Seymour Pkwy, North Vancouver, BC V7H 1E7, Canada",https://www.ontherunstores.com/locations/43018?utm_source=G&utm_medium=lpm&utm_campaign=parkland,"convenience_store, store, food, point_of_interest, establishment",49.31574699999999,-123.001461
,,,,,,,
Marco Market,3.9,27,"4909 Rumble St, Burnaby, BC V5J 2B3, Canada",,"convenience_store, store, food, point_of_interest, establishment",49.21493209999999,-122.9937241
Chevron - Gas Station,3.6,50,"6751 Lougheed Hwy., Burnaby, BC V5B 2Z2, Canada",https://www.chevron.parkland.ca/retail/locations/?utm_source=G&utm_medium=lpm&utm_campaign=parkland,"gas_station, convenience_store, food, point_of_interest, store, establishment",49.25980499999999,-122.964226
Shell,3.4,57,"12389 Harris Rd, Pitt Meadows, BC V3Y 2J4, Canada",https://find.shell.com/ca/fuel/10053090-harris-rd-davison-rd,"gas_station, convenience_store, meal_delivery, car_wash, food, point_of_interest, store, establishment",49.2277783,-122.6899587
On The Run - Convenience Store,3,14,"9610 160 St, Surrey, BC V4N 2J4, Canada",https://www.ontherunstores.com/locations/43029?utm_source=G&utm_medium=lpm&utm_campaign=parkland,"convenience_store, gas_station, food, point_of_interest, store, establishment",49.177198,-122.778357
Shell,3.5,59,"7165 120 St, Delta, BC V4E 2A9, Canada",https://find.shell.com/ca/fuel/10052556-scott-rd-72-ave,"gas_station, car_wash, meal_delivery, convenience_store, food, point_of_interest, store, establishment",49.1337547,-122.8907974
Petro-Canada,3.9,62,"883 Gibsons Way, Gibsons, BC V0N 1V8, Canada",https://www.petro-canada.ca/en/personal/gas-station-locations/883-gibsons-way-gibsons?utm_source=G&utm_medium=lpm&utm_campaign=suncor,"gas_station, convenience_store, store, food, point_of_interest, establishment",49.406439,-123.51851
Shell,3.6,64,"12791 72 Ave, Surrey, BC V3W 2M7, Canada",https://find.shell.com/ca/fuel/10052929-72-ave-surrey,"gas_station, car_wash, convenience_store, atm, finance, car_repair, restaurant, food, point_of_interest, store, establishment",49.134101,-122.8684787
Sun Mart,3.5,17,"2604 Shaughnessy St, Port Coquitlam, BC V3C 3G6, Canada",,"convenience_store, food, point_of_interest, store, establishment",49.2628729,-122.7808258
Shell,3.3,28,"6511 Hastings St, Burnaby, BC V5B 1S1, Canada",https://find.shell.com/ca/fuel/10053520-hastings-e-kensington,"gas_station, atm, convenience_store, meal_delivery, finance, food, point_of_interest, store, establishment",49.28060350000001,-122.9694421
7-Eleven,3.4,61,"1395 Marine Dr & 14th, West Vancouver, BC V7T 1B6, Canada",https://stores.7-eleven.ca/store/25931,"convenience_store, store, food, point_of_interest, establishment",49.3280833,-123.1541526
Shell,3.3,54,"2025 152 St, Surrey, BC V4A 4N7, Canada",https://find.shell.com/ca/fuel/10053189-152-st-20-ave,"gas_station, convenience_store, meal_delivery, store, food, point_of_interest, establishment",49.0387331,-122.8016382
Petro-Canada,3.6,108,"17638 60 Ave, Surrey, BC V3S 4E4, Canada",https://www.petro-canada.ca/en/personal/gas-station-locations/1763860th-avenue-surrey?utm_source=G&utm_medium=lpm&utm_campaign=suncor,"gas_station, convenience_store, food, point_of_interest, store, establishment",49.111117,-122.734309
Mary Hill Town Pantry,1,2,"1320 Kingsway Ave Building 5, Port Coquitlam, BC V3C 6P4, Canada",http://www.chevronwithtechron.ca/,"convenience_store, food, point_of_interest, store, establishment",49.2470183,-122.7492374
